,run,hr,min,sec,AoA,rounded_AoA,AoS,dPb,pBar,temp,B1,B2,B3,B4,B5,B6,rpmWT,rho,q,V,rounded_v,Re,rpsM1,rpsM2,iM1,iM2,dPtQ,pInf,nu,rounded_J,J_M1,J_M2,FX,FY,FZ,MX,MY,MZ,CFX,CFY,CFZ,CMX,CMY,CMZ,CN,CT,CL,CD,CYaw,CMroll,CMpitch,CMpitch25c,CMyaw
0,65.0,10.0,28.0,22.0,-4.994,-5,-0.005,417.93,100736.0,286.53999999999996,-570.8,21.2,-565.7,-607.8,-48.9,-39.1,0.0,1.2247343376561788,979.4995546479081,39.99412246757025,40,453605.09454468766,123.02,123.03,13.09,12.28,0.0,100736.0,1.4546167645736305e-05,1.6,1.5999143947038514,1.5997843520805313,-5.2436403316632685,-0.1473812917766228,-73.2131096576883,-0.8557165777158547,4.52482589150298,0.25130606726538696,-0.024650710051656168,-0.0006928494825791515,-0.3441798109710013,-0.0028804322074253187,0.12893418254138844,0.0008459227142762905,-0.34072736296511397,-0.0545184731345669,-0.3441798109710013,-0.0246507704203166,0.0006906982996769273,-0.0029903991514251744,0.13588205834038328,0.22106389908166177,0.001103029934516595
46,111.0,11.0,8.0,17.0,-3.994,-4,-0.005,416.8,100714.0,287.34,-672.7,21.9,-309.4,-355.9,-271.2,-40.0,0.0,1.221057755314085,976.8307810504319,39.999684223337354,40,451326.4478480881,123.03,123.03,11.57,11.69,0.0,100714.0,1.4621641071803442e-05,1.6,1.6000068250164863,1.6000068250164863,-6.174082197292369,-0.14723358189166746,-47.489231484851686,-0.9124206301034243,2.6164068893346273,0.2585741515708951,-0.029104078419630072,-0.0006940461070079917,-0.22386004479001256,-0.003079695053990145,0.07475777875150827,0.0008727658159069885,-0.22128920949530761,-0.04462569657702009,-0.22386004479001256,-0.029104138875758526,0.0006915062943975779,-0.003206569524745605,0.08296084964399193,0.13828315201781882,0.001093990181351766
33,98.0,10.0,59.0,43.0,-2.994,-3,-0.005,417.63,100719.0,286.79999999999995,-745.0,18.6,-59.3,-103.4,-462.3,-36.1,0.0,1.2234175522320185,978.7910191616756,40.00116429069415,40,452877.49037520576,123.02,123.02,11.21,11.14,0.0,100719.0,1.4572103157859283e-05,1.6,1.6001960939507849,1.6001960939507849,-6.8327446716174665,-0.15162173550474167,-21.347060653944325,-0.8664867976683797,0.8090508762398496,0.23452743359089578,-0.032144449862347615,-0.0007133000732808828,-0.10042662998217526,-0.002918797258302376,0.023070462331399512,0.0007900155339975351,-0.0986105996586996,-0.0373459944502941,-0.10042662998217526,-0.03214451198712471,0.0007104949381366969,-0.0030743208450650012,0.0321304709397764,0.056783120854451294,0.000949513190031797
39,104.0,11.0,3.0,28.0,-1.994,-2,-0.005,417.25,100717.0,287.10999999999996,-790.5,14.9,182.0,139.0,-625.0,-32.6,0.0,1.2220723296049087,977.8935528363936,40.00482121523746,40,452040.86894458113,123.03,123.03,11.18,11.17,0.0,100717.0,1.4600407350574258e-05,1.6,1.600212307191154,1.600212307191154,-7.245303617840329,-0.16720311434159624,4.328116861311564,-0.8557102814880087,-0.9061285715829621,0.21295639600480223,-0.034116603464429435,-0.0007873241275857332,0.020380187566120526,-0.002885141533961637,-0.025862391567736363,0.0007180109393658686,0.02155492865523105,-0.0333868196725485,0.020380187566120526,-0.03411667204151448,0.000784346889291346,-0.0030801867067796404,-0.016246525612650553,-0.021635257776458316,0.0008247507719802762
45,110.0,11.0,7.0,50.0,-0.994,-1,-0.005,417.22,100710.0,287.23999999999995,-804.6,-9.3,406.7,381.9,-754.9,-25.0,0.0,1.221434342561601,977.8227008009401,40.01381797858296,40,451747.42281802197,123.03,123.03,11.38,11.14,0.0,100710.0,1.4613177131717455e-05,1.6,1.6005721821010528,1.6005721821010528,-7.369409215064066,-0.45900773474574563,29.817922187255828,-0.8613506652384888,-2.5159503833394012,0.16410527292353988,-0.03470350489080464,-0.002161527023781602,0.14041646735315252,-0.0029043692736992806,-0.071814542457192,0.0005533429433170492,0.14099736318183403,-0.032262379506401026,0.14041646735315252,-0.03470369338748043,0.0021584985634433285,-0.0035034741162744587,-0.06203325659297729,-0.0972825973884358,0.0006140369015807378
38,103.0,11.0,3.0,0.0,0.006,0,-0.005,417.4,100718.0,287.02,-801.8,-30.3,628.5,615.4,-860.0,-13.6,0.0,1.2224676686868654,978.2478142630679,40.00559647049257,40,452306.1443035533,123.03,123.03,11.33,11.28,0.0,100718.0,1.4592127058522605e-05,1.6,1.600243317778447,1.600243317778447,-7.338638875602282,-0.6529184764642326,55.15787167377585,-0.8711753751844534,-3.983510305563861,0.09065624138847854,-0.03454358536494694,-0.003073341734129451,0.2596327031496686,-0.002936220459068676,-0.11365472617236065,0.0003055489380089051,0.25962908433027926,-0.034570773848585735,0.25963270314966863,-0.03454385343307588,0.0030703272259305493,-0.003802482925623003,-0.10391851410119957,-0.1688257851837694,0.00030515074125345544
47,112.0,11.0,8.0,47.0,1.001,1,-0.005,416.97,100715.0,287.42999999999995,-776.0,-23.9,840.8,823.5,-929.6,-14.8,0.0,1.220687538272233,977.2322704113608,40.01397000986698,40,451240.85909787146,123.04,123.03,11.95,12.08,0.0,100715.0,1.4629637492713454e-05,1.6,1.6004481774166561,1.6005782634263626,-7.096822431530347,-0.5649439948650223,79.22383408204504,-0.8441757544388908,-5.228934139246942,0.09952147315696623,-0.033440050154433125,-0.0026620020023043426,0.3733007286979273,-0.0028481773622955012,-0.1493433238477798,0.0003357770054606439,0.3726595665272684,-0.039956457255904756,0.37330072869792724,-0.033440282330600736,0.0026590837972857596,-0.0036037873434429076,-0.13991814645133602,-0.23308303808315312,0.0002727681128701307
34,99.0,11.0,0.0,31.0,2.001,2,-0.005,416.98,100717.0,286.96,-732.4,-24.0,1049.4,1030.1,-976.8,-13.7,0.0,1.2227111323977744,977.2558875158858,39.98132773290784,40,452195.31335087476,123.03,123.03,10.84,11.23,0.0,100717.0,1.4586849276845417e-05,1.6,1.5992725564706003,1.5992725564706003,-6.691865964262897,-0.5522187827402179,103.51813776884393,-0.8623459362749765,-6.370689623207012,0.09321486450409938,-0.03153114336487709,-0.0026019782375120613,0.48776309332639883,-0.0029094117012239897,-0.18194854734491972,0.00031449144259637087,0.48636469303194224,-0.04854311058408048,0.48776309332639883,-0.031531370310251654,0.0025992266162647775,-0.003651546762746336,-0.1730614009933384,-0.29465257425132396,0.00018679883442234362
42,107.0,11.0,5.0,38.0,3.005,3,-0.005,417.58,100713.0,287.12,-648.9,-8.5,1256.0,1224.2,-990.2,-20.0,0.0,1.2219812332763667,978.6729307237704,40.0222516015584,40,452191.86648658046,123.02,123.03,11.59,11.58,0.0,100713.0,1.4601891307299103e-05,1.6,1.6010396652086534,1.6009095311222346,-5.92050363197935,-0.38174695777875134,127.75005124079962,-0.8863350581131015,-7.474513772244697,0.13518052727633625,-0.027856199025938614,-0.0017961342302016804,0.6010689417899816,-0.0029860172139954287,-0.2131649572019999,0.0004554162421414796,0.5987821418350567,-0.05932779473503992,0.6010689417899817,-0.027856355662150493,0.0017937033114151265,-0.003511335322698105,-0.20531360482072036,-0.35500914027948455,0.0002707149353375196
35,100.0,11.0,1.0,5.0,4.001,4,-0.005,417.24,100717.0,286.96,-563.8,24.6,1453.8,1405.3,-1004.8,-39.8,0.0,1.2227111323977744,977.8699354819877,39.99388667371316,40,452337.35701212473,123.02,123.03,11.84,11.4,0.0,100717.0,1.4586849276845417e-05,1.6,1.5999049620681824,1.5997749202115563,-5.134960288267611,-0.09684590609965932,150.61101382064115,-0.8590775971377544,-8.622555091760747,0.2650717363865581,-0.02418002671779074,-0.0004560379176346952,0.709212561292326,-0.002896564844206247,-0.24610776985528257,0.0008937463569858317,0.7057969571862789,-0.0736056112907457,0.709212561292326,-0.024180066422535854,0.0004539278105036815,-0.0030800879638476918,-0.2392925575510715,-0.41574179684764123,0.0006766584456532807
36,101.0,11.0,1.0,37.0,5.001,5,-0.005,417.44,100717.0,286.95,-443.5,38.1,1643.3,1586.7,-1000.6,-46.5,0.0,1.2227537429965687,978.3422843285324,40.002847772372945,40,452466.740320811,123.04,123.03,11.63,11.75,0.0,100717.0,1.458594557278281e-05,1.6,1.6000033186655316,1.600133368516679,-4.026240354904419,0.03694935898533558,173.44134729337392,-0.8530941270929537,-9.88018390518365,0.30945013151727363,-0.01895001919663823,0.0001739069206890925,0.8163240569323285,-0.0028750015518435017,-0.28186726744359475,0.0010428739104816254,0.8115645230821401,-0.09003940264387972,0.8163240569323283,-0.01895000394824014,-0.00017556062116629243,-0.002906137925894023,-0.27652614828350125,-0.4794172790540363,0.0007855667357853562
41,106.0,11.0,4.0,59.0,6.005,6,-0.005,417.39,100714.0,287.10999999999996,-286.7,29.3,1819.4,1763.1,-977.4,-38.7,0.0,1.2220359284314344,978.2241967698388,40.012179743833045,40,452110.5506531386,123.03,123.04,11.32,11.38,0.0,100714.0,1.4600842257558905e-05,1.6,1.600506651914209,1.6003765717246843,-2.582342703664867,-0.006157812785328232,195.60795932928858,-0.8987857536879691,-11.256983778489275,0.2591664334965259,-0.012155595989320473,-2.898603825514414e-05,0.9207652115762096,-0.0030293519631759314,-0.3211841315337896,0.0008735189013404969,0.9144411001272746,-0.10841497941178324,0.9207652115762097,-0.01215559847254442,2.792526228334057e-05,-0.0031122375821545753,-0.3177580407226292,-0.5463683157544479,0.000543138185311228
1,66.0,10.0,29.0,19.0,7.001,7,-0.005,418.23,100737.0,286.75,-105.5,25.4,1975.1,1921.7,-944.6,-37.0,0.0,1.2238495582411162,980.2080984635145,40.023044640108,40,453346.70378556807,123.03,123.03,13.43,11.94,0.0,100737.0,1.4564983630753098e-05,1.6,1.600941253049957,1.600941253049957,-0.914488130923415,-0.046117820926039166,215.6642000541801,-0.9006091294095788,-12.757151823310618,0.24846790942896996,-0.004295963353216108,-0.0002166462985456058,1.0131192179584612,-0.0030293539151430744,-0.36325021407613883,0.0008357646060167279,1.0050418052063297,-0.12774965708563848,1.0131192179584612,-0.004295982242814365,0.00021627140419586051,-0.0031692428108943747,-0.3620393840532863,-0.6132998353548686,0.0004432447237463628
44,109.0,11.0,7.0,2.0,8.005,8,-0.005,417.48,100714.0,287.16999999999996,156.5,12.4,2090.1,2038.6,-872.6,-33.1,0.0,1.2217806017757744,978.4367545420747,40.020707710626496,40,452038.9630383235,123.03,123.04,11.21,11.37,0.0,100714.0,1.4606266967652223e-05,1.6,1.6008477747340006,1.6007176668199292,1.4967957154181704,-0.20364610270202632,231.62832642162886,-1.0460020327305408,-14.642876546162835,0.22309730367016697,0.007044181768731311,-0.0009583940875499006,1.090083314171662,-0.003524777647078159,-0.41769962327898175,0.0007517847618777889,1.0804424243179636,-0.14482893380187026,1.0900833141716617,0.007044098106247338,0.0009590088047246929,-0.0038626192012435542,-0.41968504681980995,-0.6897956528993008,0.00020655282416463013
48,113.0,11.0,9.0,27.0,9.001,9,-0.005,416.89,100713.0,287.37,455.9,10.6,2176.0,2121.5,-795.2,-21.9,0.0,1.2209181602056944,977.0433339083369,40.006322728041695,40,451313.10824102734,123.02,123.03,12.08,11.74,0.0,100713.0,1.4624499985072005e-05,1.6,1.6004024507266639,1.600272368433668,4.252259151538903,-0.0923961832007982,243.85578932355665,-0.9912309268871126,-16.9923710724325,0.15074684786568102,0.020040413562989894,-0.00043545269867093026,1.1492645893900433,-0.003344975747845051,-0.48541210073694674,0.0005087054252416571,1.1382474540328251,-0.16001077460418756,1.1492645893900433,0.02004037548626505,0.0004372015530113071,-0.003504594488605549,-0.49106055078582433,-0.7756224142940307,-4.585874925796586e-05
37,102.0,11.0,2.0,7.0,10.001,10,-0.005,417.19,100717.0,286.95,806.4,25.4,2252.2,2204.1,-698.0,-27.4,0.0,1.2227537429965687,977.7518488487801,39.990774970431566,40,452330.18650914147,123.04,123.04,11.04,11.01,0.0,100717.0,1.458594557278281e-05,1.6,1.5995204399644523,1.5995204399644523,7.477556639739121,0.07794336238851934,255.96091556219875,-0.7234867237805034,-19.69288879428865,0.18695239289265023,0.035215336820622736,0.00036707201184628244,1.2054405320763013,-0.0024396856729885135,-0.5621487169128979,0.0006304263222520373,1.193239212585326,-0.17466304093464421,1.205440532076301,0.03521536871960862,-0.00036399889257888307,-0.00241020896155532,-0.5720742641258074,-0.8703840672721389,0.00020227699819814208
40,105.0,11.0,4.0,22.0,11.001,11,-0.005,417.05,100719.0,287.16999999999996,1171.5,27.7,2337.1,2295.4,-555.1,-21.4,0.0,1.2218412577224043,977.4212075066957,39.99894013733059,40,451815.5250487242,123.03,123.03,11.57,11.07,0.0,100719.0,1.4605541867771978e-05,1.6,1.599977061214288,1.599977061214288,10.836388449634637,0.19027799859690808,270.2621603444673,-0.5163420926192887,-21.997913042671385,0.1481913359470972,0.051050921755480504,0.0008964118685213522,1.2732223900369422,-0.0017417576562355724,-0.6281598355550426,0.0004998883446907892,1.2595673180294336,-0.19285129622485478,1.2732223900369417,0.051050999787785656,-0.0008919568317596677,-0.0015571291230051304,-0.6425486893867581,-0.9574405188941165,0.0001935614017132278
2,67.0,10.0,30.0,3.0,12.001,12,-0.005,417.88,100735.0,286.75,1599.2,42.8,2427.5,2377.1,-321.5,-20.5,0.0,1.2238252603255888,979.3814648217739,40.00656201139907,40,453151.0058192181,123.04,123.04,13.48,12.95,0.0,100735.0,1.4565272804995035e-05,1.6,1.6001518779581583,1.6001518779581583,14.77015766357139,0.44352930118806005,286.54547436644157,-0.4047065925344235,-23.731278949387715,0.1426258857211672,0.0694438886014693,0.002085312837191726,1.347232199845513,-0.0013624493120924224,-0.6763004942828421,0.000480151654240345,1.3322264367820886,-0.2122022033428802,1.347232199845513,0.06944407031492109,-0.002079252706751716,-0.0008576032237166775,-0.6958734604161169,-1.028930069611639,0.00029133706898504973
43,108.0,11.0,6.0,24.0,13.001,13,-0.005,417.49,100714.0,287.16999999999996,2180.3,-12.5,2438.6,2393.4,-28.3,19.6,0.0,1.2217806017757744,978.4603721185974,40.02119071906764,40,452044.4186798492,123.03,123.03,11.21,11.52,0.0,100714.0,1.4606266967652223e-05,1.6,1.6008670953065844,1.6008670953065844,20.113964035657368,0.056979962713117005,295.4227272017431,-0.7385307883154762,-26.209710101583234,-0.1192820577290447,0.09465753899684963,0.0002681511726377926,1.3902773352423738,-0.0024886127361234945,-0.7476346433096047,-0.0004019424142527627,1.375934081523127,-0.22053689460198123,1.3902773352423738,0.0946575620370247,-0.0002598907430405833,-0.002260753959525457,-0.7743141516487341,-1.1182976720295157,-0.000900236511109237
3,68.0,10.0,30.0,52.0,14.001,14,-0.005,417.6,100737.0,286.81,2663.2,-43.0,2491.8,2484.1,266.2,25.6,0.0,1.2235935316956874,978.720166071168,39.99683993518305,40,452881.3834010831,123.04,123.04,14.35,13.78,0.0,100737.0,1.4570402579740448e-05,1.6,1.599763021787256,1.599763021787256,24.551648228252347,-0.3544954606866998,311.49593279611923,-0.5700839515518955,-27.78941665656741,-0.15958057237644854,0.11551088126768766,-0.0016678343827928987,1.46552970187865,-0.0019204908133749379,-0.7924855180635458,-0.0005375927920928066,1.4499375858059413,-0.24248931532544016,1.4655297018786497,0.11551073528184826,0.001677914602429469,-0.002189489928559403,-0.8250426028208837,-1.187526999272369,-0.0010513443511964361
6,71.0,10.0,33.0,29.0,-4.994,-5,-0.005,417.19,100732.0,287.01,255.9,19.3,-703.1,-744.8,619.4,-38.0,0.0,1.2226801932247882,977.7518488487801,39.991977765797316,40,452243.03174100263,109.36,109.37,8.42,7.31,0.0,100732.0,1.4589195310959975e-05,1.8,1.7996608833372207,1.7994963353914093,2.3620201004911645,-0.16101821445225278,-73.61437648900962,-0.884708840705468,5.186644846757673,0.24229864569192472,0.011123865377872886,-0.0007583106259679463,-0.3466847779024042,-0.0029833463593593756,0.14805678212804027,0.0008170606523229731,-0.3463370482170385,-0.019097765379570995,-0.3466847779024042,0.011123799160430554,0.0007592813634612438,-0.0031138154826332947,0.1449214876522121,0.23150574970647173,0.001085021005165301
4,69.0,10.0,31.0,43.0,7.005,7,-0.005,417.58,100734.0,286.87,730.7,29.4,1814.8,1756.8,-236.2,-38.4,0.0,1.223301180620922,978.6729307237704,40.0006536813293,40,452742.67270186334,109.36,109.37,8.2,7.37,0.0,100734.0,1.4576256371174228e-05,1.8,1.8000513042836785,1.799886720640606,6.778721652055665,0.0037317359783313186,213.13098001326765,-0.945762417069844,-11.678405066121528,0.2558654447368731,0.031894148068949385,1.7557962394138352e-05,1.0027895204344393,-0.0031862249291284505,-0.3330553387099862,0.0008619975205284116,0.9991938922623272,-0.09064008296464378,1.0027895204344393,0.03189414947972674,-1.4774672851206456e-05,-0.0032626553041665905,-0.34204479901492063,-0.5918432720805025,0.00045766289474542154
7,72.0,10.0,34.0,31.0,12.001,12,-0.005,417.15,100732.0,287.08,2319.8,45.1,2247.6,2197.8,355.4,-20.0,0.0,1.2223820616463927,977.6573797088016,39.99492209973242,40,452080.2919301049,109.36,109.36,8.78,7.57,0.0,100732.0,1.4595521616434377e-05,1.8,1.7997933799754595,1.7997933799754595,21.400040662553398,0.4895542403872349,281.15056309297364,-0.36979906685622627,-21.944175188550602,0.13787922319226945,0.10079261128455258,0.0023057643222331825,1.3241983912605315,-0.0012471281543202813,-0.6264739545320739,0.0004649905220170351,1.316214356885307,-0.17674924790656266,1.3241983912605313,0.10079281211665846,-0.0022969684988216558,-0.0006808732097675423,-0.6548826512062853,-0.9839362404276121,0.0003132545520237992
5,70.0,10.0,32.0,19.0,14.001,14,-0.005,417.44,100737.0,286.89,3324.9,-46.4,2316.9,2315.5,908.1,25.2,0.0,1.2232523295536273,978.3422843285324,39.99469454248978,40,452632.6004600707,109.36,109.36,8.97,8.43,0.0,100737.0,1.4577629017910122e-05,1.8,1.79978313977502,1.79978313977502,30.639669795238035,-0.41061247308432297,306.20405552268517,-0.5492470166515524,-25.88612502248359,-0.15860015495358917,0.1442095552221946,-0.0019326005308770836,1.4411888557957468,-0.0018510103106671235,-0.7384934728758056,-0.0005344963435254141,1.433263193267628,-0.20875423998452944,1.4411888557957466,0.14420938602187358,0.0019451851812596328,-0.002195230862757538,-0.7791393640737663,-1.1374551623906732,-0.0010497288483649614
10,75.0,10.0,37.0,17.0,-4.994,-5,-0.005,417.16,100734.0,287.16999999999996,2032.6,27.2,-1010.1,-1060.6,2123.2,-40.3,0.0,1.2220232255622938,977.6809969799141,40.00127688927166,40,451909.2127235226,56.24,56.24,-1.02,-0.88,0.0,100734.0,1.4603367000021104e-05,3.5,3.500296543468765,3.500296543468765,18.707621356229843,-0.05646521885576489,-74.84578220133517,-0.9647543193904978,7.481995081768623,0.25347344650553066,0.08810938670857447,-0.0002659405869410603,-0.3525095917812716,-0.0032535052605988496,0.21359480493639169,0.0008548053893646943,-0.358841449080036,0.057088446695454896,-0.3525095917812716,0.08810936316538455,0.00027362958041856223,-0.0032414139405080823,0.188760912756655,0.278471275026664,0.001133730083450521
11,76.0,10.0,37.0,57.0,0.001,0,-0.005,417.45,100730.0,287.27,1852.9,-4.8,108.6,80.4,1464.7,-25.4,0.0,1.2215493258264662,978.3659018680357,40.02304689553574,40,451857.4535036776,56.24,56.24,-1.01,-0.91,0.0,100730.0,1.461298832318272e-05,3.5,3.502201519599612,3.502201519599612,17.084973847545,-0.38085444214562814,47.59922837974868,-0.9048618086683916,0.43879724405745435,0.16184514180012058,0.08041069045488577,-0.0017924972510356453,0.22402649563817564,-0.0030493895367115376,0.012517944570733637,0.0005454190653699568,0.22402789903535664,0.08040678044267814,0.22402649563817564,0.08041053372381046,0.001799514400712614,-0.003554619726419554,-0.010146047217788067,-0.06615302197662723,0.0005453570254690055
8,73.0,10.0,35.0,13.0,7.005,7,-0.005,417.88,100735.0,287.03,2558.6,27.9,1408.4,1353.4,1427.0,-39.3,0.0,1.2226314092546517,979.3814648217739,40.02608965596751,40,452586.19137836935,56.24,56.24,-1.0,-1.0,0.0,100735.0,1.4590568185892574e-05,3.5,3.5024677751956874,3.5024677751956874,23.595986372041658,-0.02351262715705582,204.34329807982107,-0.9814500877835458,-7.836599193124325,0.2576144266883935,0.11093971279015039,-0.00011054778819657211,0.9607475797845157,-0.0033040627991252755,-0.22332955249102762,0.0008672618753963869,0.9671058507870631,-0.0070572876656888744,0.9607475797845157,0.11093970272060887,0.00012022910406037438,-0.0034160930602565994,-0.25459823984432906,-0.49637470254109484,0.00044417530522320874
9,74.0,10.0,35.0,57.0,12.001,12,-0.005,416.97,100733.0,287.04999999999995,4146.0,62.4,1772.0,1713.8,2134.1,-28.0,0.0,1.222521950778907,977.2322704113608,39.98393795894684,40,452044.59604199615,56.24,56.23,-0.98,-0.92,0.0,100733.0,1.4592665350816326e-05,3.5,3.4987793069552557,3.499401533401451,38.202071706758886,0.6752095626786927,266.00879302079744,-0.37158770429208665,-16.596104641380098,0.18619181112039407,0.18000720832489453,0.0031815706055166766,1.253426792900257,-0.001253705382921761,-0.474000506425621,0.0006281953712712258,1.2634605377206083,-0.08455051644961686,1.253426792900257,0.1800074852838898,-0.003165862001109128,-0.0004797881980029803,-0.5247360724090896,-0.8406012068392417,0.0005147037491872086
12,77.0,10.0,39.0,12.0,14.001,14,-0.005,416.68,100733.0,287.22999999999996,5046.7,61.5,1845.7,1776.9,2647.4,-24.4,0.0,1.2217558262405919,976.5473784060043,39.982454132172194,40,451524.3633567171,56.24,56.22,-0.6,-0.75,0.0,100733.0,1.4608936411420156e-05,3.5,3.4986494652568325,3.4998940933127765,46.48132868432876,0.7071790559480626,287.0081506668046,-0.524714152301592,-20.038983464979236,0.16224002243952923,0.2191724672931925,0.0033345470729296083,1.3533237171877182,-0.0017715826363019736,-0.572733794371462,0.0005477679712017947,1.3661448350677048,-0.11476037443299994,1.3533237171877182,0.21917275745277268,-0.0033154206543369413,-0.0009395475213866359,-0.6345082048497536,-0.9760444136166797,0.0003041815800615298
14,79.0,10.0,41.0,10.0,-4.994,-5,-0.005,105.07,100732.0,286.76,-21.1,-15.4,-166.3,-159.8,95.1,-11.4,0.0,1.223746137039498,245.11656301645405,20.01500302515628,20,226687.46980806312,61.52,61.53,1.57,1.27,0.0,100732.0,1.456660973851601e-05,1.6,1.601089574701099,1.6008293618659453,-0.19140856398099643,-0.39025687667830355,-17.648450937205453,-0.31390322207094873,1.082760941683989,0.07001583919322978,-0.0035957499885847922,-0.007331261102823314,-0.3315390698103571,-0.004222358172936608,0.12329071291888109,0.0009417932982724528,-0.32996747253153885,-0.0324430470185121,-0.3315390698103571,-0.0035963897481152145,0.007330947286526443,-0.0061828384070172085,0.12430418572646237,0.20679605385934707,0.0014764429501486222
51,116.0,11.0,16.0,57.0,-3.994,-4,-0.005,105.11,100700.0,286.59,-44.9,-33.8,-107.0,-90.0,31.2,-8.2,0.0,1.224083057402585,245.20987685374902,20.01605722607741,20,226866.47130921602,61.5,61.51,2.31,2.04,0.0,100700.0,1.4555883061664828e-05,1.6,1.601694611906841,1.6014342160993453,-0.4015023196630121,-0.6429661130151209,-11.298170850349335,-0.40659579582141436,0.4676187736322533,0.049847797680098366,-0.007539644701096942,-0.012073992626115193,-0.21216364093592502,-0.005467098267132674,0.05322607241494959,0.0006702548602763806,-0.21112321824123698,-0.022298957304544998,-0.21216364093592502,-0.007540698327012701,0.01207333462201935,-0.008801961743531747,0.055351143653952356,0.1081319482142616,0.0012817013615161422
65,130.0,11.0,25.0,6.0,-2.994,-3,-0.005,104.9,100696.0,286.34999999999997,-68.0,-37.3,-44.1,-24.5,-26.9,-5.8,0.0,1.2250603407244698,244.719980859943,19.988075102140613,20,226878.05168453814,61.5,61.5,1.99,1.95,0.0,100696.0,1.4534792245856805e-05,1.6,1.5994554687712543,1.5994554687712543,-0.6057338466873802,-0.6679407991071885,-4.854610300069426,-0.38925620291849217,-0.09624722720293599,0.035275558360994455,-0.011397594260073508,-0.01256809118329166,-0.09134519854480139,-0.005244427276110914,-0.010977140877209236,0.00047526564525210554,-0.09062520117831721,-0.01615312240701404,-0.09134519854480139,-0.011398690989532494,0.012567096507703955,-0.008749963432424512,-0.007764695103420797,0.014891605191158504,0.0009316395748841654
58,123.0,11.0,21.0,46.0,-1.994,-2,-0.005,104.99,100699.0,286.42999999999995,-76.1,-21.8,20.9,26.6,-67.0,-5.5,0.0,1.224754668531118,244.92993578609742,19.99914275198593,20,226897.70497850003,61.5,61.5,2.07,2.46,0.0,100699.0,1.4541580680731965e-05,1.6,1.6003411074823897,1.6003411074823897,-0.6725424258572998,-0.41577896909564244,1.2703111474621642,-0.34925118927227783,-0.5887061548948425,0.034810568254047,-0.012643828559666326,-0.007816663755091558,0.02388190803795115,-0.004701408417822863,-0.0670852664199899,0.0004685988298559087,0.024307386973047768,-0.011805205238448729,0.023881908037951153,-0.012644510644116569,0.007815560343137191,-0.006884072603569218,-0.06352156580965218,-0.06959841255291413,0.0007078452906812106
52,117.0,11.0,17.0,36.0,-0.999,-1,-0.005,105.11,100702.0,286.60999999999996,-83.0,-42.1,69.5,95.0,-102.5,-4.5,0.0,1.2240219491583837,245.20987685374902,20.01655686207169,20,226848.49078501336,61.5,61.5,2.29,2.3,0.0,100702.0,1.4557400163104433e-05,1.6,1.6017345930215485,1.6017345930215485,-0.7286452586769852,-0.7257755882612829,7.560576286176545,-0.3568711190464197,-1.048818540836352,0.028672395855030525,-0.013682925588510477,-0.013629037243950464,0.14197691057215978,-0.004798498893936725,-0.11938034730957821,0.00038552982422481694,0.14219389122867732,-0.01120548461793815,0.14197691057215975,-0.013684114894277167,0.01362784313154233,-0.00863184853520407,-0.11552377411729924,-0.15107224692446858,0.0005359671212260621
59,124.0,11.0,22.0,8.0,0.001,0,-0.005,104.87,100699.0,286.42999999999995,-80.6,-25.9,129.8,141.7,-124.1,-5.0,0.0,1.224754668531118,244.64999605114565,19.98771059421728,20,226768.0029011247,61.5,61.49,1.98,2.42,0.0,100699.0,1.4541580680731965e-05,1.6,1.599426300670354,1.599686412282107,-0.6999377098513101,-0.4722552410870685,13.57238444946718,-0.3136061695150858,-1.4344631791680453,0.033306513228247396,-0.013173918131469587,-0.008888579363098061,0.2554534197394435,-0.004226407227678519,-0.16364948125089018,0.0004488651752428726,0.255453189772289,-0.01317837663272279,0.2554534197394435,-0.013174693756184595,0.008887429688020407,-0.006731687538371717,-0.15993637332126984,-0.2237996707643421,0.0004487476850627524
50,115.0,11.0,15.0,58.0,1.006,1,-0.005,104.82,100705.0,286.60999999999996,-73.2,-14.0,189.0,187.1,-136.0,-2.5,0.0,1.2240584138348296,244.5333548882473,19.988627706458523,20,226538.71705983143,61.49,61.5,2.37,2.06,0.0,100705.0,1.4556966498435459e-05,1.6,1.5997598119835856,1.5994996884369217,-0.625824455280346,-0.25034241873094576,19.67133842918162,-0.30812560070552575,-1.7576084746783374,0.018330434528060914,-0.011784609738225177,-0.004714081849591471,0.3704218402788536,-0.004154527448490799,-0.20061087531787314,0.00024715341151536726,0.3701578405291308,-0.01828633033348609,0.3704218402788536,-0.011785021074599611,0.00471305343043791,-0.005486699540347573,-0.19728934808278595,-0.2898288082150686,0.00015078472762381043
64,129.0,11.0,24.0,34.0,2.006,2,-0.005,105.18,100696.0,286.37,-55.9,-15.2,238.5,237.1,-133.8,-1.3,0.0,1.224974782855927,245.37317642532733,20.015431909266375,20,227160.35537851072,61.51,61.5,1.92,2.05,0.0,100696.0,1.453659753678242e-05,1.6,1.6013841860796576,1.6016445737521905,-0.4611642721304951,-0.2532440375019234,25.801229664930474,-0.30925593954499436,-2.0079462897415317,0.01130856970309132,-0.008654248268218433,-0.004752399319363361,0.4841880879324634,-0.004155496491472393,-0.2283996572605174,0.00015195414449891236,0.4835884268063511,-0.025597538314088168,0.4841880879324634,-0.008654662960342438,0.0047516440756356975,-0.005496925869956105,-0.22596043169763314,-0.3468575383992209,-4.0554209322848326e-05
55,120.0,11.0,19.0,55.0,3.006,3,-0.005,104.96,100701.0,286.46999999999997,-36.7,-15.4,285.6,283.1,-124.9,-0.8,0.0,1.2246079768724318,244.85995072741883,19.997482928105313,20,226827.04993098372,61.49,61.49,2.32,2.21,0.0,100701.0,1.4544903031109626e-05,1.6,1.600468526354816,1.600468526354816,-0.27964782476863087,-0.24880512523804685,31.699685447689927,-0.3296564389892048,-2.2034988475756387,0.008807286254470182,-0.005258894626682361,-0.00467888472684508,0.5961258794210279,-0.004438904083166454,-0.25116869612744497,0.00011859225027260488,0.5950298599916806,-0.0365128170163497,0.5961258794210279,-0.005259302916376479,0.0046784257838985354,-0.005755958410346804,-0.24968646106688794,-0.39844392606480805,-0.0001834164492291697
63,128.0,11.0,24.0,8.0,4.001,4,-0.005,105.03,100697.0,286.39,-15.1,-20.6,328.0,330.7,-111.9,3.2,0.0,1.224901401166558,245.02324932723684,20.001753904839784,20,226979.18478851748,61.51,61.49,2.23,2.24,0.0,100697.0,1.4538258533876789e-05,1.6,1.600289843470157,1.60081034756626,-0.0767137388535429,-0.2809571859719675,37.50611253296506,-0.2877388692098126,-2.382066257878314,-0.016550979346682034,-0.0014416725719653943,-0.005279996451296148,0.7048481084079771,-0.0038718916286291614,-0.27134197615483796,-0.0002227144304626568,0.7030296845002311,-0.050618149488238486,0.704848108407977,-0.0014421333330881733,0.00527987062152599,-0.005331471251940887,-0.2709356364610992,-0.44669305758615696,-0.000594169097524318
62,127.0,11.0,23.0,46.0,4.005,4,-0.005,105.23,100696.0,286.40999999999997,-11.7,-20.1,330.4,330.9,-110.3,2.5,0.0,1.2248037029658596,245.48981925410047,20.02158685857174,20,227173.78043175768,61.5,61.5,2.2,2.73,0.0,100696.0,1.4540208370285818e-05,1.6,1.6021370957822594,1.6021370957822594,-0.045447023306779445,-0.28161275494044763,37.70498610293172,-0.3239289453293896,-2.394238260603255,-0.012008648635287772,-0.000852457503760322,-0.005282258080647286,0.7072388023227941,-0.004350590692962008,-0.2722101542575364,-0.0001612844907533918,0.7054521575746573,-0.050246428410753094,0.7072388023227941,-0.0008529184644910533,0.005282183669583163,-0.005813886054360342,-0.2719698865797439,-0.44833292597340824,-0.0005669529371546445
61,126.0,11.0,23.0,27.0,5.005,5,-0.005,105.22,100697.0,286.42999999999995,16.4,-19.9,374.3,374.4,-92.6,2.2,0.0,1.224730343469925,245.4664906698361,20.021235116965936,20,227143.8396352578,61.5,61.5,2.02,2.6,0.0,100697.0,1.4541869499280299e-05,1.6,1.6021089492482825,1.6021089492482825,0.21659968862713766,-0.2806151136903952,43.46469088915737,-0.3384221250041495,-2.5872161359387587,-0.009400940814351989,0.004063183117624625,-0.005264045390480191,0.8153520411454106,-0.0045456761307965474,-0.29417850635784454,-0.00012627316333501222,0.8125976589632173,-0.0670858040462622,0.8153520411454106,0.004062723727533568,0.005264399950053312,-0.005995357113465517,-0.29532372658033185,-0.4984731413211362,-0.0006488426979104856
56,121.0,11.0,20.0,29.0,6.001,6,-0.005,104.97,100699.0,286.46999999999997,48.1,-23.3,410.1,413.9,-69.5,3.8,0.0,1.2245836552077636,244.88327907105685,19.998634102591048,20,226835.6022293942,61.5,61.5,2.07,2.51,0.0,100699.0,1.4545191909907454e-05,1.6,1.6003004051109921,1.6003004051109921,0.511103244344325,-0.31357410569968075,48.61262704619668,-0.3233444334783423,-2.7568843304697843,-0.01924900283021118,0.00961059523977725,-0.005896330811636379,0.9140937516109745,-0.004353496627498108,-0.3142171275196295,-0.00025916781063014307,0.9100893301855599,-0.0860067518133765,0.9140937516109746,0.009610080651251237,0.0058971694718338045,-0.005955336119137401,-0.31692590231518136,-0.5444482348615713,-0.0008803530928990653
16,81.0,10.0,42.0,52.0,7.006,7,-0.005,105.26,100726.0,286.65,96.0,-9.2,450.9,445.8,-36.5,-4.8,0.0,1.2241428221720356,245.55980506242267,20.02984518722937,20,226996.85536219808,61.52,61.54,1.47,1.44,0.0,100726.0,1.4557543339193273e-05,1.6,1.6022768656013993,1.6017561386382528,0.9538654254621775,-0.19308375100253822,53.84225722265766,-0.3512572447604008,-2.9662795315540302,0.03742990660276506,0.017886715877178678,-0.0036206723742072127,1.0096404916458903,-0.0047162841843870875,-0.3371516086475398,0.0005025663645859352,1.0042835953071403,-0.1053960016926168,1.0096404916458903,0.017886399845801208,0.0036222332708408605,-0.005755246765526071,-0.34219303261083034,-0.5932639314376154,-0.00020317244172622726
53,118.0,11.0,18.0,17.0,8.001,8,-0.005,104.82,100702.0,286.59999999999997,146.9,-0.7,478.5,466.9,-3.6,-7.4,0.0,1.22406465753065,244.5333548882473,19.988576727505063,20,226545.44505185477,61.5,61.5,2.36,2.28,0.0,100702.0,1.4556497057773672e-05,1.6,1.5994956090763286,1.5994956090763286,1.4239585665793122,-0.08781167077561006,57.598095469696744,-0.3584088121245217,-3.316613846105629,0.05506520224785318,0.026813902603123038,-0.0016535408001729717,1.08460299217829,-0.004832507407183463,-0.37855348124695093,0.0007424566270104821,1.077777313130167,-0.12441342096746472,1.0846029921782898,0.026813758202367012,0.001655880748302453,-0.005350327493228839,-0.3861110592876016,-0.6555553875701433,-9.484853732616753e-06
49,114.0,11.0,15.0,15.0,9.001,9,-0.005,105.01,100707.0,286.69,218.0,9.0,498.7,483.7,39.7,-11.4,0.0,1.2237411469408699,244.97659253815743,20.009328357824764,20,226665.32330188205,61.5,61.49,2.51,2.18,0.0,100707.0,1.4563902641431796e-05,1.6,1.6011561646041197,1.601416557540305,2.0797901253457893,0.019548913682081753,60.89640578343826,-0.315424360313902,-3.8988953623954883,0.08175510012015137,0.039092703301365654,0.0003674504812405382,1.1446371893008753,-0.004245243414519639,-0.4442090797367398,0.0011003281421988816,1.136657800736165,-0.14046913756281695,1.1446371893008755,0.03909273521861535,-0.00036403899791515005,-0.004262822399954784,-0.45522747420147025,-0.7393919243855115,0.0004198524465987752
60,125.0,11.0,22.0,53.0,10.001,10,-0.005,105.06,100699.0,286.45,286.3,-1.2,515.5,507.9,81.1,-4.2,0.0,1.2246691558993472,245.09323458026748,20.00650696039243,20,226953.07476061655,61.5,61.5,2.43,2.68,0.0,100699.0,1.4543386253385168e-05,1.6,1.6009303950125175,1.6009303950125175,2.7095386136856514,-0.052622083645560425,64.39810689697167,-0.2867858960542856,-4.591453351701347,0.03528397644153362,0.05090551110608875,-0.000988638453024602,1.2098807262966749,-0.0038579662262111054,-0.5228646658465989,0.0004746551044201213,1.2003367766771336,-0.15998239116068588,1.2098807262966749,0.050905424637274495,0.0009930807931355663,-0.004156191017736987,-0.5372125352551596,-0.8372967294244429,-0.0002543438451237206
57,122.0,11.0,20.0,58.0,11.001,11,-0.005,104.51,100704.0,286.46999999999997,406.7,-8.2,520.6,508.5,165.2,3.5,0.0,1.224644459369434,243.81018484248943,19.954272957935963,20,226343.67158496458,61.51,61.5,2.22,2.28,0.0,100704.0,1.4544469734427338e-05,1.6,1.596491012755109,1.596750604789703,3.8181729722873228,-0.06782504891496319,66.78613631174136,-0.39090533866984867,-5.289608433827273,-0.014484286479489046,0.07211150115933421,-0.0012809702779215042,1.2613489700511074,-0.005286298875902549,-0.6055390033941018,-0.00019587419193433316,1.2519309945745463,-0.1699119703612122,1.2613489700511074,0.07211138909900927,0.0012872631886548741,-0.005506189811453745,-0.6258638440451103,-0.9388465926887468,-0.0012429996606090497
13,78.0,10.0,40.0,15.0,12.005,12,-0.005,105.23,100731.0,286.90999999999997,514.3,-9.5,535.7,522.5,252.9,2.4,0.0,1.2230942056526706,245.48981925410047,20.035573883269578,20,226707.31832457928,61.51,61.52,1.55,1.6,0.0,100731.0,1.4580304254882532e-05,1.6,1.6029956945792678,1.6027351296094077,4.808205919073496,-0.10117712224622583,70.70214315973217,-0.45614459003497976,-5.813093990686259,-0.007145527292746258,0.09018833175653927,-0.0018977963965971037,1.3261720588740848,-0.0061263386204440645,-0.6609130085155206,-9.596939385739845e-05,1.315926857822327,-0.18762401175013235,1.3261720588740848,0.0901881657991495,0.0019056668060410042,-0.006495591896815543,-0.6863328575279783,-1.0153145719835601,-0.0014449344400856567
54,119.0,11.0,18.0,56.0,13.001,13,-0.005,104.76,100700.0,286.53,673.3,-12.4,518.2,522.3,373.2,1.0,0.0,1.224339383034959,244.39338579817968,19.98061318215453,20,226549.06952510693,61.5,61.51,2.49,2.83,0.0,100700.0,1.4550464888023498e-05,1.6,1.5988583623131147,1.5985984276094385,6.269143221140618,-0.1639041692795182,72.55801742113076,-0.25078352128699655,-6.442543873737068,0.001925823436704682,0.11811893555344817,-0.003088170954969257,1.3670888479228565,-0.0033833077499380144,-0.7357637344918733,2.5981186183914776e-05,1.3586180695506351,-0.1924602352223129,1.3670888479228565,0.1181186656099298,0.003098478764869084,-0.004150523621788841,-0.769055907091165,-1.1087104244788237,-0.0009084200602652425
15,80.0,10.0,42.0,9.0,14.001,14,-0.005,104.59,100727.0,286.72999999999996,790.1,-12.8,524.5,530.0,487.6,3.1,0.0,1.2238134261823068,243.9968085189798,19.968684900880806,20,226193.72246942628,61.5,61.52,1.43,1.3,0.0,100727.0,1.4564623288725763e-05,1.6,1.5979038554574616,1.5973843808620594,7.339622937021956,-0.1441741706591982,76.22406692381772,-0.20991483500608543,-6.808749137442582,-0.011588167565281589,0.13851295181682452,-0.002720846850730857,1.4384963096462657,-0.0028365532552903686,-0.7788496491353856,-0.00015658947796232144,1.4292724090499616,-0.2136301744029956,1.4384963096462655,0.13851271385072667,0.002732934375684598,-0.003458494394942174,-0.817889935754261,-1.1752080380167516,-0.0009886815289698577
19,84.0,10.0,45.0,47.0,-4.994,-5,-0.005,26.19,100727.0,286.45,33.8,0.6,-64.2,-66.3,77.5,-0.6,0.0,1.2250096829787143,61.38974308738623,10.011361532529197,10,113600.09327677333,30.76,30.76,0.34,0.33,0.0,100727.0,1.4539343496079829e-05,1.6,1.6017071352074859,1.6017071352074859,0.31243808739302714,-0.0024547618488738815,-6.074943478225712,-0.04152339006837142,0.3254004567244643,0.0005383612564945569,0.023435214655292597,-0.00018412566577907628,-0.45566661100411887,-0.0022301236473375855,0.14794244211505325,2.8914117246737016e-05,-0.45597688706443645,-0.016320175640746785,-0.4556666110041189,0.02343519849806241,0.0001861707733586144,-0.0022708400380440684,0.14133715730148996,0.25533137906759906,0.00022648420622740917
18,83.0,10.0,45.0,0.0,7.006,7,-0.005,26.01,100727.0,286.46999999999997,48.0,-21.2,84.7,91.5,103.2,10.3,0.0,1.2249241585131174,60.97114669406343,9.97751936271449,10,113202.02743534732,30.76,30.76,0.33,0.34,0.0,100727.0,1.4541148650667354e-05,1.6,1.5962927622785898,1.5962927622785898,0.5159122972106202,-0.1968093292084648,13.050494428061278,-0.17981875065492445,-0.6975018723537434,-0.06086313102977104,0.03896299187640564,-0.014863534629064479,0.9856061023023844,-0.00972394667543205,-0.31929451342858556,-0.003291257660715594,0.9829994040723613,-0.08154554080415227,0.9856061023023843,0.0389616946399584,0.014866934734937375,-0.013407947428299632,-0.3302763483431674,-0.5760261993612577,-0.004902094455570733
17,82.0,10.0,44.0,29.0,12.001,12,-0.005,26.13,100726.0,286.51,172.3,-5.1,74.6,78.6,332.2,4.3,0.0,1.2247409862678929,61.25021062310366,10.001074562112507,10,113439.98426379447,30.76,30.77,0.33,0.31,0.0,100726.0,1.4544903610619697e-05,1.6,1.6000613336986158,1.5995413267653371,1.666465921656922,-0.006025351921284047,17.099254090031117,-0.09708150625761112,-1.484363286128731,-0.019076802796417925,0.12528227514509452,-0.00045297643800467594,1.285494907422527,-0.005225897353037843,-0.6763991586867327,-0.0010269042692197564,1.283448882984935,-0.14474726332302418,1.285494907422527,0.12528223513840364,0.00046390937724434983,-0.0050230393935706795,-0.7117103398129385,-1.0325725605591722,-0.0020488945866049433
20,85.0,10.0,46.0,56.0,14.001,14,-0.005,26.01,100720.0,286.40999999999997,230.8,1.7,66.9,67.2,469.1,0.5,0.0,1.225095624083592,60.97114669406343,9.976821106643149,10,113228.40577393303,30.76,30.76,0.37,0.33,0.0,100720.0,1.4536743666146751e-05,1.6,1.5961810490287949,1.5961810490287949,2.198943992935657,0.05606266480495403,19.26872976414055,-0.09997323045440937,-1.6452334087325873,0.006286793547368381,0.1660697707665715,0.0042339931906552565,1.455222845681394,-0.005406190168537541,-0.753136330580784,0.00033996702230110995,1.452169089399502,-0.19093882566973286,1.4552228456813938,0.16607013961983266,-0.0042195008531122555,-0.004169921100052808,-0.7999435884178117,-1.1629858607676873,-0.0006789987205728395
24,89.0,10.0,50.0,10.0,-4.994,-5,-0.005,417.8,100726.0,287.02,2221.6,23.6,-1042.1,-1089.9,2272.3,-38.6,0.0,1.2225647689206816,979.192521581212,40.02331929695356,40,452542.4623059884,11.11,11.11,0.04,0.04,0.0,100726.0,1.4590968102379523e-05,17.0,17.728636725512217,17.728636725512217,20.44643831398157,-0.09222786968774233,-74.94012665273925,-0.9634751975297329,7.585450566008063,0.24194784404505112,0.09615023715154443,-0.0004337054408343715,-0.3524091012418736,-0.0032441759978265703,0.21621396226542716,0.0008146773164366989,-0.35944130747800856,0.0651075204634845,-0.35240910124187363,0.09615019893749188,0.000442096130246633,-0.0032827188186431715,0.18911373252060706,0.2789740593901092,0.0010973499922642723
23,88.0,10.0,49.0,20.0,7.005,7,-0.005,418.08,100724.0,286.89,2738.4,36.2,1368.6,1307.1,1586.4,-41.9,0.0,1.2230944701744102,979.8538255145394,40.028161446450724,40,452952.8953695864,11.11,11.11,0.05,0.05,0.0,100724.0,1.4579510487840156e-05,17.0,17.73078159282742,17.73078159282742,25.250225250714355,0.07756500803954747,202.979542195783,-0.9857308693304272,-7.513034924420477,0.27433154182443664,0.11866010964031133,0.00036450654466791126,0.9538756384365484,-0.0033168743530486975,-0.21400531338684636,0.0009230950187527954,0.9612267533588345,0.0014435545774816178,0.9538756384365485,0.11866014099768385,-0.00035415149527311183,-0.0033027221542677823,-0.2474500175088926,-0.4877567058486012,0.0005134179403481385
21,86.0,10.0,48.0,8.0,12.005,12,-0.005,417.53,100726.0,286.72999999999996,4323.3,60.9,1715.8,1653.3,2339.6,-24.6,0.0,1.2238012763771287,978.5548425172367,39.990067036080994,40,452979.87160559196,11.12,11.1,0.02,0.04,0.0,100726.0,1.4564767885188332e-05,17.0,17.697977608303564,17.72986585624645,39.83333945016441,0.6940778961392902,263.9012624521333,-0.4283590113893888,-15.652257315219543,0.1636929609712113,0.18744002258205691,0.0032660574865640128,1.2418155062130256,-0.0014432936228551622,-0.44643912631957755,0.0005515397141050566,1.2536432938376816,-0.07495335451120999,1.2418155062130256,0.18744030688562133,-0.003249700246428202,-0.000626031526196301,-0.49926965306432014,-0.8126804765237405,0.0004092645286789509
22,87.0,10.0,48.0,43.0,14.001,14,-0.005,417.67,100726.0,286.84999999999997,5276.0,110.8,1785.8,1684.0,2907.9,-42.0,0.0,1.2232893148879693,978.8854900785873,40.0051913656305,40,452814.1980106368,11.11,11.1,0.04,0.01,0.0,100726.0,1.4575607218085408e-05,17.0,17.720606819081244,17.736571329729067,48.59090976857592,1.2776970977515627,284.03622339663053,-0.4676468658318733,-18.886349219004295,0.277320992022061,0.22857246952911253,0.006010308972072859,1.3361112464594478,-0.0015751361272360368,-0.538501064134189,0.0009340772820060519,1.3517179465076352,-0.1014752670912353,1.3361112464594476,0.2285729931571755,-0.005990362238349129,-0.00011063423094071345,-0.60292489314479,-0.9408543797716988,0.0008795605341800391
27,92.0,10.0,52.0,34.0,-4.994,-5,-0.005,105.16,100724.0,286.54999999999995,610.7,-27.2,-279.6,-262.5,622.8,-11.1,0.0,1.224545707724085,245.32651935860207,20.0170348945386,20,226987.95404280777,2.36,2.61,0.05,0.04,0.0,100724.0,1.4548803421317832e-05,17.0,41.74111440373223,37.74292336889199,5.621210917414748,-0.5722602809375046,-17.923429994563755,-0.35059764201888766,1.8064594777819618,0.06629337216315714,0.10550818811019577,-0.010741127891517765,-0.3364165926575976,-0.004711904169921825,0.2055200362756741,0.0008909586925200469,-0.3443241322706933,0.07582211754942285,-0.33641659265759755,0.10550725036821615,0.010750335176958578,-0.007632383862479194,0.1757822402758639,0.2618632733435372,0.0015519863134418669
28,93.0,10.0,53.0,33.0,7.001,7,-0.005,104.76,100724.0,286.53,727.3,-15.3,309.6,309.5,527.2,0.9,0.0,1.224631181894868,244.39338579817968,19.978232601135876,20,226576.06482671705,2.35,2.59,0.04,0.04,0.0,100724.0,1.4546997877605795e-05,17.0,41.8374782231862,37.96064626428092,6.762038140213792,-0.21749670739316004,50.67133111448018,-0.31494411191328153,-1.7739291780679203,-0.001108170653726578,0.12740572660717586,-0.004097925132261642,0.9547147805038904,-0.004248895019757429,-0.20258965749538013,-1.4950274012287794e-05,0.9631255097812021,0.010088790492102012,0.9547147805038904,0.12740536851062098,0.004109043363719743,-0.005361793741917115,-0.2384993397192346,-0.47928071716453513,-0.000668369971253171
25,90.0,10.0,51.0,12.0,12.001,12,-0.005,104.54,100724.0,286.83,1133.8,14.0,372.3,347.4,859.1,-9.4,0.0,1.2233503209160008,243.88016865176186,19.96768979106138,20,226035.53447948475,2.33,2.6,0.05,0.05,0.0,100724.0,1.4574089834027378e-05,17.0,42.174330436326464,37.794688429477176,10.507969819400865,0.13107040981954227,64.83779378965795,-0.4219623411344184,-3.9572563995443106,0.06852402490486921,0.19840065937461387,0.002474736431454725,1.224200417526213,-0.0057046520755111765,-0.4528852167844733,0.0009263995451466522,1.2386974623479425,-0.0604820691147632,1.2242004175262127,0.19840087458065414,-0.002457422698332529,-0.005090329179034085,-0.5088050315437598,-0.8184793971307454,-0.00015227371724044984
26,91.0,10.0,51.0,38.0,14.001,14,-0.005,104.9,100723.0,286.69,1396.6,-5.2,358.8,359.3,1094.6,-2.3,0.0,1.2239355709466595,244.719980859943,19.99725729301139,20,226564.57261284572,2.3,2.55,0.04,0.04,0.0,100723.0,1.4561589143598503e-05,17.0,42.787695337665596,38.5928232457376,12.91981042515825,-0.08666124423347797,70.50879135352191,-0.2510829370642663,-4.817052046024621,0.022155942483202743,0.2431014181365696,-0.0016306331654537464,1.3267057801219033,-0.0033828265133172587,-0.5493920236327415,0.0002985057867175044,1.3461070192643807,-0.0851024041731103,1.3267057801219033,0.24310127491132003,0.0016518477600315823,-0.003800492774357621,-0.6179108799347698,-0.954437634750865,-0.000629849148154479
31,96.0,10.0,56.0,53.0,-4.995,-5,-0.005,26.18,100720.0,286.33,178.4,-0.9,-89.0,-91.8,199.9,0.4,0.0,1.2254379132252353,61.366487653535316,10.007716059006938,10,113635.4736843289,0.57,0.58,0.05,0.04,0.0,100720.0,1.4529524055411016e-05,17.0,86.4045108009302,84.91477785608657,1.642757631205756,-0.013500961754150661,-6.151095502023865,-0.06830500290243886,0.5119766615186847,-0.0063062730297413164,0.12326591605405118,-0.0010130577917416767,-0.4615534314921458,-0.0036698913160696663,0.232857021645524,-0.0003388234484327305,-0.4705332064399135,0.08261088197200817,-0.4615534314921458,0.12326582717871959,0.001023814768323736,-0.003969904099574622,0.1981141573143065,0.3157474589242849,8.118119290611019e-06
29,94.0,10.0,55.0,1.0,7.001,7,-0.005,26.18,100724.0,286.42999999999995,193.7,-19.1,52.8,61.5,232.1,9.8,0.0,1.2250587317960289,61.366487653535316,10.009264738424235,10,113587.01992775929,0.57,0.6,0.04,0.05,0.0,100724.0,1.4537971416633854e-05,17.0,86.4178817725535,82.09698768392583,1.8563828590053737,-0.16886312382566745,12.422302151923725,-0.12404051298645459,-0.437535843012139,-0.057894476856426076,0.13929549272242892,-0.012670808676044117,0.932119519745089,-0.006664448899885233,-0.19899987816779025,-0.003110554554360587,0.9421479226920007,0.02464396781663572,0.9321195197450889,0.13929438645538095,0.012682964452687797,-0.009780301279357336,-0.23826072626373385,-0.473797706936734,-0.00427945065685195
32,97.0,10.0,57.0,57.0,12.001,12,-0.005,26.01,100721.0,286.28999999999996,314.2,1.2,36.8,38.1,472.6,-0.2,0.0,1.2256212980104801,60.97114669406343,9.974681327736397,10,113289.63834815651,0.55,0.57,0.05,0.05,0.0,100721.0,1.4525770533935387e-05,17.0,89.25090665476375,86.11929589494748,2.97203701530776,0.039671263584839356,15.747124038944674,-0.09747701448399707,-1.0389621826904514,0.009912943192130848,0.22445569665601173,0.00299607342011429,1.1892623403695894,-0.005271203850935815,-0.4756043499545002,0.0005360560600370724,1.2099405844530282,-0.027731860308189138,1.1892623403695892,0.22445595725807652,-0.002976485954073424,-0.0044414619284708695,-0.538867854310962,-0.841353000424219,-0.000399167679593225
30,95.0,10.0,55.0,47.0,14.001,14,-0.005,26.22,100719.0,286.37,372.2,8.9,30.4,27.8,609.3,-2.9,0.0,1.2252545796701568,61.45950944446812,10.016047497321248,10,113700.69901570203,0.55,0.57,0.05,0.04,0.0,100719.0,1.4533277986912524e-05,17.0,89.62104059879427,86.47644268304711,3.499885715621712,0.12965428720745065,18.05897830232162,-0.0742660448062315,-1.197582968628042,0.02818322528812868,0.2622198441001861,0.009714010610891947,1.3530220298071158,-0.0039841268861335625,-0.5438598050951294,0.0015119365236341649,1.3762669423627494,-0.07291888056451445,1.3530220298071156,0.2622206908090695,-0.00969112757571471,-0.001574977463862378,-0.6177672465044074,-0.9618339820950947,0.0010859709576174644
