Unnamed: 0,run,hr,min,sec,AoA,rounded_AoA,AoS,dPb,pBar,temp,B1,B2,B3,B4,B5,B6,rpmWT,rho,q,V,rounded_v,Re,rpsM1,rpsM2,iM1,iM2,dPtQ,pInf,nu,rounded_J,J_M1,J_M2,FX,FY,FZ,MX,MY,MZ,CFX,CFY,CFZ,CMX,CMY,CMZ,CN,CT,CL,CD,CYaw,CMroll,CMpitch,CMpitch25c,CMyaw,Thrust coefficient
0,65.0,10.0,28.0,22.0,-4.994,-5,-0.005,417.93,100736.0,286.54,-570.8,21.2,-565.7,-607.8,-48.9,-39.1,0.0,1.2247343376561788,979.499554647908,39.99412246757025,40,453605.09454468766,123.02,123.03,13.09,12.28,0.0,100736.0,1.4546167645736304e-05,1.6,1.5999143947038514,1.5997843520805313,-5.2436403316632685,-0.1473812917766228,-73.2131096576883,-0.8557165777158547,4.52482589150298,0.2513060672653869,-0.0246507100516561,-0.0006928494825791,-0.3441798109710013,-0.0028804322074253,0.1289341825413884,0.0008459227142762,-0.3407273629651139,-0.0545184731345669,-0.3441798109710013,-0.0246507704203166,0.0006906982996769,-0.0029903991514251,0.1358820583403832,0.1358820583403832,0.0011030299345165,0.1212624094
46,111.0,11.0,8.0,17.0,-3.994,-4,-0.005,416.8,100714.0,287.34,-672.7,21.9,-309.4,-355.9,-271.2,-40.0,0.0,1.221057755314085,976.830781050432,39.99968422333736,40,451326.4478480881,123.03,123.03,11.57,11.69,0.0,100714.0,1.4621641071803442e-05,1.6,1.6000068250164865,1.6000068250164865,-6.174145620911252,-0.1471533329649534,-47.48924857953004,-0.912333979315008,2.616469356556859,0.2585319620906456,-0.0291043773929703,-0.0006936678206519,-0.2238601253728171,-0.0030794025814224,0.0747595636079837,0.0008726234136756,-0.221289269058311,-0.0446260004370128,-0.2238601253728171,-0.0291044378160859,0.0006911279819526,-0.003206181318906,0.0829627187669907,0.0829627187669907,0.0010938210856491,0.1221388463
33,98.0,10.0,59.0,43.0,-2.994,-3,-0.005,417.63,100719.0,286.79999999999995,-745.0,18.6,-59.3,-103.4,-462.3,-36.1,0.0,1.2234175522320183,978.7910191616756,40.00116429069415,40,452877.49037520576,123.02,123.02,11.21,11.14,0.0,100719.0,1.4572103157859285e-05,1.6,1.6001960939507849,1.6001960939507849,-6.83286695677161,-0.1514748064731628,-21.34712270956371,-0.8663237373094796,0.8091643576226524,0.2344501892203354,-0.0321450251493216,-0.0007126088498976,-0.1004269219210434,-0.0029182479826183,0.0230736983058532,0.0007897553330832,-0.0986108611510417,-0.0373465842003769,-0.1004269219210434,-0.0321450872137759,0.0007098036645528,-0.0030735913523592,0.0321338690605713,0.0321338690605713,0.0009492152418786,0.1223385256
39,104.0,11.0,3.0,28.0,-1.994,-2,-0.005,417.25,100717.0,287.11,-790.5,14.9,182.0,139.0,-625.0,-32.6,0.0,1.2220723296049087,977.8935528363936,40.00482121523746,40,452040.86894458113,123.03,123.03,11.18,11.17,0.0,100717.0,1.4600407350574258e-05,1.6,1.600212307191154,1.600212307191154,-7.245478111601077,-0.1670033805946315,4.327991270804262,-0.8554827059979436,-0.9059754987313386,0.2128513923491503,-0.03411742511867,-0.0007863836235843,0.0203795961869647,-0.0028843742327935,-0.0258580226181731,0.0007176569055127,0.0215543662234977,-0.0333876614062013,0.0203795961869648,-0.0341174936136775,0.0007834063135907,-0.0030791672654522,-0.0162419250774006,-0.0162419250774006,0.0008243614812046,0.1222843463
45,110.0,11.0,7.0,50.0,-0.994,-1,-0.005,417.22,100710.0,287.23999999999995,-804.6,-9.3,406.7,381.9,-754.9,-25.0,0.0,1.221434342561601,977.82270080094,40.01381797858296,40,451747.422818022,123.03,123.03,11.38,11.14,0.0,100710.0,1.4613177131717457e-05,1.6,1.6005721821010528,1.6005721821010528,-7.369627173657727,-0.4587693782405035,29.817723780229542,-0.861072122084442,-2.5157691117964625,0.1639799674158459,-0.0347045312861235,-0.0021604045720484,0.1404155330287031,-0.0029034300601934,-0.0718093682959673,0.0005529204284446,0.140996446803585,-0.0322634219556477,0.1404155330287032,-0.034704719684843,0.0021573760221446,-0.0035022260550212,-0.0620277931391853,-0.0620277931391853,0.0006135927992942,0.1217364212
38,103.0,11.0,3.0,0.0,0.006,0,-0.005,417.4,100718.0,287.02,-801.8,-30.3,628.5,615.4,-860.0,-13.6,0.0,1.2224676686868654,978.247814263068,40.00559647049257,40,452306.1443035533,123.03,123.03,11.33,11.28,0.0,100718.0,1.4592127058522603e-05,1.6,1.600243317778447,1.600243317778447,-7.338889464410131,-0.6526559857254514,55.15760046091532,-0.8708610663800391,-3.983312198770365,0.0905182513770388,-0.0345447649073692,-0.0030721061683254,0.2596314265281099,-0.0029351611087148,-0.1136490739280734,0.000305083854736,0.2596278075852062,-0.034571953257314,0.2596314265281099,-0.0345450328676702,0.0030690915571967,-0.003801075278684,-0.1039125293993793,-0.1039125293993793,0.0003046858053915,0.1214107855
47,112.0,11.0,8.0,47.0,1.001,1,-0.005,416.97,100715.0,287.42999999999995,-776.0,-23.9,840.8,823.5,-929.6,-14.8,0.0,1.220687538272233,977.2322704113608,40.01397000986698,40,451240.85909787146,123.04,123.03,11.95,12.08,0.0,100715.0,1.4629637492713454e-05,1.6,1.600448177416656,1.6005782634263626,-7.097092725088626,-0.5646721649850697,79.22349936635081,-0.8438425366312394,-5.228730533994898,0.0993785756038849,-0.0334413237709329,-0.0026607211466951,0.3732991515259308,-0.0028470531136879,-0.1493375086884598,0.0003352948812422,0.3726579673460653,-0.0399577031250691,0.3732991515259308,-0.0334415558353199,0.0026578028305374,-0.0036022938859038,-0.1399119723194251,-0.1399119723194251,0.0002723121527182,0.1211887718
34,99.0,11.0,0.0,31.0,2.001,2,-0.005,416.98,100717.0,286.96,-732.4,-24.0,1049.4,1030.1,-976.8,-13.7,0.0,1.2227111323977744,977.2558875158858,39.98132773290784,40,452195.3133508748,123.03,123.03,10.84,11.23,0.0,100717.0,1.4586849276845415e-05,1.6,1.5992725564706003,1.5992725564706003,-6.692140946262811,-0.551952715379091,103.51775814563231,-0.8620123203088368,-6.370491827339053,0.0930749985559765,-0.0315324390418838,-0.0026007245650456,0.4877613045945304,-0.0029082861364653,-0.1819428982436489,0.00031401955816,0.4863628601497353,-0.0485443430139642,0.4877613045945305,-0.0315326658778499,0.0025979728307339,-0.0036500522717382,-0.1730553867016573,-0.1730553867016573,0.0001863794207846,0.1212883968
42,107.0,11.0,5.0,38.0,3.005,3,-0.005,417.58,100713.0,287.12,-648.9,-8.5,1256.0,1224.2,-990.2,-20.0,0.0,1.2219812332763669,978.6729307237704,40.0222516015584,40,452191.86648658046,123.02,123.03,11.59,11.58,0.0,100713.0,1.4601891307299103e-05,1.6,1.6010396652086534,1.6009095311222346,-5.920766195267072,-0.3815020611640773,127.74965459770276,-0.8860212098196667,-7.474333067402993,0.1350517920070575,-0.0278574343963824,-0.0017949819821391,0.6010670755688398,-0.0029849598752405,-0.2131598036975684,0.0004549825396419,0.5987802134180846,-0.0593289305737017,0.6010670755688398,-0.027857590932037,0.0017925509555505,-0.0035099323838178,-0.2053081031234623,-0.2053081031234623,0.0002703553756039,0.1208289109
35,100.0,11.0,1.0,5.0,4.001,4,-0.005,417.24,100717.0,286.96,-563.8,24.6,1453.8,1405.3,-1004.8,-39.8,0.0,1.2227111323977744,977.8699354819876,39.99388667371316,40,452337.35701212473,123.02,123.03,11.84,11.4,0.0,100717.0,1.4586849276845415e-05,1.6,1.5999049620681824,1.5997749202115563,-5.13519123484428,-0.096637895026695,150.61063733760705,-0.8588053391395398,-8.622402737081536,0.2649623915928391,-0.024181114222675,-0.0004550584137983,0.709210788470471,-0.0028956468678222,-0.2461034212985116,0.0008933776775016,0.7057951128056472,-0.0736065724485312,0.7092107884704709,-0.0241811538419381,0.0004529482117683,-0.0030788710973058,-0.2392879024778208,-0.2392879024778208,0.0006763755702082,0.1216596788
36,101.0,11.0,1.0,37.0,5.001,5,-0.005,417.44,100717.0,286.95,-443.5,38.1,1643.3,1586.7,-1000.6,-46.5,0.0,1.2227537429965687,978.3422843285324,40.00284777237295,40,452466.740320811,123.04,123.03,11.63,11.75,0.0,100717.0,1.458594557278281e-05,1.6,1.6000033186655316,1.600133368516679,-4.02641839592614,0.0371044631537043,173.4410374426664,-0.8528869364130426,-9.88007113279441,0.3093685993818208,-0.0189508571696557,0.0001746369384498,0.816322598580035,-0.0028743033011964,-0.2818640502114558,0.0010425991400799,0.8115629972328057,-0.0900401102977485,0.816322598580035,-0.0189508418575483,-0.0001762907120511,-0.0029052134063781,-0.27652269486618,-0.27652269486618,0.0007853736046456,0.1223102420
41,106.0,11.0,4.0,59.0,6.005,6,-0.005,417.39,100714.0,287.11,-286.7,29.3,1819.4,1763.1,-977.4,-38.7,0.0,1.2220359284314344,978.2241967698388,40.012179743833045,40,452110.5506531386,123.03,123.04,11.32,11.38,0.0,100714.0,1.4600842257558903e-05,1.6,1.600506651914209,1.6003765717246845,-2.5824444594427094,-0.0060719434520712,195.60777187548712,-0.8986687635822902,-11.256921798195522,0.2591212964245115,-0.012156074973819,-2.8581834381869308e-05,0.920764329194226,-0.0030289576487301,-0.321182363112762,0.0008733667671114,0.9144401724780404,-0.1084153634573706,0.920764329194226,-0.0121560774217677,2.752101661232205e-05,-0.0031117162149194,-0.3177561372983989,-0.3177561372983989,0.000543041428842,0.1228540817
1,66.0,10.0,29.0,19.0,7.001,7,-0.005,418.23,100737.0,286.75,-105.5,25.4,1975.1,1921.7,-944.6,-37.0,0.0,1.2238495582411162,980.2080984635144,40.023044640108,40,453346.70378556807,123.03,123.03,13.43,11.94,0.0,100737.0,1.4564983630753098e-05,1.6,1.600941253049957,1.600941253049957,-0.914488130923415,-0.0461178209260391,215.6642000541801,-0.9006091294095788,-12.757151823310618,0.2484679094289699,-0.0042959633532161,-0.0002166462985456,1.0131192179584612,-0.003029353915143,-0.3632502140761388,0.0008357646060167,1.0050418052063297,-0.1277496570856384,1.0131192179584612,-0.0042959822428143,0.0002162714041958,-0.0031692428108943,-0.3620393840532863,-0.3620393840532863,0.0004432447237463,0.1238795023
44,109.0,11.0,7.0,2.0,8.005,8,-0.005,417.48,100714.0,287.17,156.5,12.4,2090.1,2038.6,-872.6,-33.1,0.0,1.2217806017757744,978.4367545420748,40.020707710626496,40,452038.9630383235,123.03,123.04,11.21,11.37,0.0,100714.0,1.4606266967652224e-05,1.6,1.6008477747340006,1.6007176668199292,1.4969171382486666,-0.2038165659115439,231.63046494152616,-1.0464949229675724,-14.64250620486805,0.2231868497189419,0.0070447532057551,-0.000959196317153,1.0900933784193862,-0.003526438569749,-0.4176890590009297,0.0007520865107283,1.0804524700768956,-0.1448297694752579,1.0900933784193862,0.0070446694732612,0.000959811084192,-0.0038645298687033,-0.4196746436029792,-0.4196746436029792,0.0002065855541214,0.1230380818
48,113.0,11.0,9.0,27.0,9.001,9,-0.005,416.89,100713.0,287.37,455.9,10.6,2176.0,2121.5,-795.2,-21.9,0.0,1.2209181602056944,977.0433339083368,40.006322728041695,40,451313.10824102734,123.02,123.03,12.08,11.74,0.0,100713.0,1.4624499985072003e-05,1.6,1.600402450726664,1.600272368433668,4.252503540645899,-0.0928190666435487,243.8626005925475,-0.9926754005427356,-16.991043165149858,0.150968942553896,0.0200415653410447,-0.0004374457002213,1.149296690125817,-0.00334985022181,-0.4853741671100912,0.0005094548987756,1.1382793396652626,-0.1600146592243698,1.1492966901258168,0.0200415270903933,0.0004391946550657,-0.0035100810088076,-0.4910229417910324,-0.4910229417910324,-4.5976880464747966e-05,0.1222512156
37,102.0,11.0,2.0,7.0,10.001,10,-0.005,417.19,100717.0,286.95,806.4,25.4,2252.2,2204.1,-698.0,-27.4,0.0,1.2227537429965687,977.75184884878,39.990774970431566,40,452330.1865091415,123.04,123.04,11.04,11.01,0.0,100717.0,1.458594557278281e-05,1.6,1.5995204399644525,1.5995204399644525,7.477909149225643,0.0772916894671823,255.9729888326445,-0.7259436540956395,-19.69044892522402,0.1872945915453185,0.0352169969538585,0.0003640029770629,1.2054973907944304,-0.002447970742351,-0.5620790689664517,0.0006315802579398,1.1932954956270796,-0.1746712804176758,1.2054973907944304,0.0352170285850143,-0.0003609297129332,-0.0024194204080464,-0.5720050840928415,-0.5720050840928415,0.0002018136902883,0.1210774141
40,105.0,11.0,4.0,22.0,11.001,11,-0.005,417.05,100719.0,287.17,1171.5,27.7,2337.1,2295.4,-555.1,-21.4,0.0,1.2218412577224045,977.4212075066956,39.99894013733059,40,451815.5250487242,123.03,123.03,11.57,11.07,0.0,100719.0,1.4605541867771978e-05,1.6,1.599977061214288,1.599977061214288,10.836817844260736,0.1895267547299919,270.27813989189474,-0.5194745010840616,-21.994639529809643,0.1485857468529103,0.051052944661134,0.0008928727104293,1.2732976707108676,-0.0017523240936884,-0.6280663589922009,0.0005012187963907,1.259641601357886,-0.1928636760119292,1.2732976707108674,0.0510530223845817,-0.0008884174971493,-0.0015687344665958,-0.6424557829858795,-0.6424557829858795,0.000192652802056,0.1211494059
2,67.0,10.0,30.0,3.0,12.001,12,-0.005,417.88,100735.0,286.75,1599.2,42.8,2427.5,2377.1,-321.5,-20.5,0.0,1.2238252603255888,979.381464821774,40.00656201139907,40,453151.0058192181,123.04,123.04,13.48,12.95,0.0,100735.0,1.4565272804995035e-05,1.6,1.6001518779581585,1.6001518779581585,14.770616318754142,0.442913292686934,286.5620594895428,-0.4077796419430539,-23.727882703838063,0.1429491765525478,0.069446045030679,0.0020824165901303,1.3473101770389402,-0.0013727947676151,-0.6762037071459653,0.0004812400164734,1.3323031580874378,-0.2122163077459947,1.34731017703894,0.0694462264913773,-0.0020763562715173,-0.000868747344894,-0.6957772810752137,-0.6957772810752137,0.0002900844606149,0.1206323445
43,108.0,11.0,6.0,24.0,13.001,13,-0.005,417.49,100714.0,287.17,2180.3,-12.5,2438.6,2393.4,-28.3,19.6,0.0,1.2217806017757744,978.4603721185974,40.02119071906764,40,452044.4186798492,123.03,123.03,11.21,11.52,0.0,100714.0,1.4606266967652224e-05,1.6,1.6008670953065844,1.6008670953065844,20.11427362419344,0.0566361155867556,295.43349888468845,-0.7404652375222658,-26.207512083091025,-0.1191016581823188,0.0946589959393436,0.0002665330071327,1.3903280274379377,-0.0024951312117369,-0.7475719446088163,-0.0004013345254325,1.3759838020474973,-0.2205468791314564,1.3903280274379377,0.0946590188383015,-0.0002582724503994,-0.002267686490544,-0.7742518635915122,-0.7742518635915122,-0.0009012038028829,0.1152383965
3,68.0,10.0,30.0,52.0,14.001,14,-0.005,417.6,100737.0,286.81,2663.2,-43.0,2491.8,2484.1,266.2,25.6,0.0,1.2235935316956874,978.720166071168,39.99683993518305,40,452881.3834010831,123.04,123.04,14.35,13.78,0.0,100737.0,1.4570402579740448e-05,1.6,1.599763021787256,1.599763021787256,24.551648228252347,-0.3544954606866998,311.49593279611923,-0.5700839515518955,-27.78941665656741,-0.1595805723764485,0.1155108812676876,-0.0016678343827928,1.46552970187865,-0.0019204908133749,-0.7924855180635458,-0.0005375927920928,1.4499375858059411,-0.2424893153254401,1.4655297018786495,0.1155107352818482,0.0016779146024294,-0.0021894899285594,-0.8250426028208837,-0.8250426028208837,-0.0010513443511964,0.1165235039
6,71.0,10.0,33.0,29.0,-4.994,-5,-0.005,417.19,100732.0,287.01,255.9,19.3,-703.1,-744.8,619.4,-38.0,0.0,1.2226801932247882,977.75184884878,39.99197776579732,40,452243.0317410026,109.36,109.37,8.42,7.31,0.0,100732.0,1.4589195310959976e-05,1.8,1.7996608833372207,1.7994963353914093,2.3620201004911645,-0.1610182144522527,-73.61437648900962,-0.884708840705468,5.186644846757673,0.2422986456919247,0.0111238653778728,-0.0007583106259679,-0.3466847779024042,-0.0029833463593593,0.1480567821280402,0.0008170606523229,-0.3463370482170385,-0.0190977653795709,-0.3466847779024042,0.0111237991604305,0.0007592813634612,-0.0031138154826332,0.1449214876522121,0.1449214876522121,0.0010850210051653,0.0853511868
4,69.0,10.0,31.0,43.0,7.005,7,-0.005,417.58,100734.0,286.87,730.7,29.4,1814.8,1756.8,-236.2,-38.4,0.0,1.223301180620922,978.6729307237704,40.0006536813293,40,452742.67270186334,109.36,109.37,8.2,7.37,0.0,100734.0,1.4576256371174228e-05,1.8,1.8000513042836783,1.799886720640606,6.778721652055665,0.0037317359783313,213.13098001326765,-0.945762417069844,-11.678405066121528,0.2558654447368731,0.0318941480689493,1.7557962394138352e-05,1.0027895204344393,-0.0031862249291284,-0.3330553387099862,0.0008619975205284,0.9991938922623272,-0.0906400829646437,1.0027895204344393,0.0318941494797267,-1.4774672851206456e-05,-0.0032626553041665,-0.3420447990149206,-0.3420447990149206,0.0004576628947454,0.0874175890
7,72.0,10.0,34.0,31.0,12.001,12,-0.005,417.15,100732.0,287.08,2319.8,45.1,2247.6,2197.8,355.4,-20.0,0.0,1.2223820616463927,977.6573797088016,39.99492209973242,40,452080.2919301049,109.36,109.36,8.78,7.57,0.0,100732.0,1.4595521616434375e-05,1.8,1.7997933799754595,1.7997933799754595,21.40049931773616,0.4889382318861087,281.1671482160748,-0.3728721835289688,-21.940779480319804,0.1382025066588165,0.100794771516595,0.0023028629676805,1.3242765059656485,-0.0012574920807538,-0.6263770120520988,0.0004660807787242,1.316291213487605,-0.1767633771825947,1.324276505965648,0.1007949720955017,-0.0022940669557643,-0.0006920372001691,-0.6547863175941236,-0.6547863175941236,0.0003119996653389,0.0885832493
5,70.0,10.0,32.0,19.0,14.001,14,-0.005,417.44,100737.0,286.89,3324.9,-46.4,2316.9,2315.5,908.1,25.2,0.0,1.2232523295536273,978.3422843285324,39.99469454248978,40,452632.6004600707,109.36,109.36,8.97,8.43,0.0,100737.0,1.4577629017910122e-05,1.8,1.79978313977502,1.79978313977502,30.639669795238035,-0.4106124730843229,306.2040555226852,-0.5492470166515524,-25.88612502248359,-0.1586001549535891,0.1442095552221946,-0.001932600530877,1.4411888557957468,-0.0018510103106671,-0.7384934728758056,-0.0005344963435254,1.433263193267628,-0.2087542399845294,1.4411888557957466,0.1442093860218735,0.0019451851812596,-0.0021952308627575,-0.7791393640737663,-0.7791393640737663,-0.0010497288483649,0.0869462833
10,75.0,10.0,37.0,17.0,-4.994,-5,-0.005,417.16,100734.0,287.17,2032.6,27.2,-1010.1,-1060.6,2123.2,-40.3,0.0,1.2220232255622938,977.680996979914,40.00127688927166,40,451909.2127235226,56.24,56.24,-1.02,-0.88,0.0,100734.0,1.4603367000021104e-05,3.5,3.500296543468765,3.500296543468765,18.707621356229843,-0.0564652188557648,-74.84578220133517,-0.9647543193904978,7.481995081768623,0.2534734465055306,0.0881093867085744,-0.000265940586941,-0.3525095917812716,-0.0032535052605988,0.2135948049363916,0.0008548053893646,-0.358841449080036,0.0570884466954548,-0.3525095917812716,0.0881093631653845,0.0002736295804185,-0.003241413940508,0.188760912756655,0.188760912756655,0.0011337300834505,0.0080715505
11,76.0,10.0,37.0,57.0,0.001,0,-0.005,417.45,100730.0,287.27,1852.9,-4.8,108.6,80.4,1464.7,-25.4,0.0,1.2215493258264662,978.3659018680356,40.02304689553574,40,451857.4535036776,56.24,56.24,-1.01,-0.91,0.0,100730.0,1.461298832318272e-05,3.5,3.502201519599612,3.502201519599612,17.084723258737153,-0.3805919514068468,47.59895716688815,-0.904547419923878,0.4389953823504839,0.1617071691371626,0.0804095110548328,-0.0017912618343629,0.2240252191707037,-0.0030483300448214,0.0125235970314158,0.0005449540966965,0.2240266225473004,0.0804056010649039,0.2240252191707037,0.0804093544315725,0.0017982788811225,-0.0035532120205581,-0.0101400623397001,-0.0101400623397001,0.0005448920813647,0.0064563982
8,73.0,10.0,35.0,13.0,7.005,7,-0.005,417.88,100735.0,287.03,2558.6,27.9,1408.4,1353.4,1427.0,-39.3,0.0,1.2226314092546515,979.381464821774,40.02608965596751,40,452586.19137836935,56.24,56.24,-1.0,-1.0,0.0,100735.0,1.4590568185892574e-05,3.5,3.5024677751956874,3.5024677751956874,23.595986372041654,-0.0235126271570558,204.34329807982107,-0.9814500877835458,-7.836599193124325,0.2576144266883935,0.1109397127901503,-0.0001105477881965,0.9607475797845156,-0.0033040627991252,-0.2233295524910276,0.0008672618753963,0.9671058507870632,-0.0070572876656888,0.9607475797845156,0.1109397027206088,0.0001202291040603,-0.0034160930602565,-0.254598239844329,-0.254598239844329,0.0004441753052232,0.0077784174
9,74.0,10.0,35.0,57.0,12.001,12,-0.005,416.97,100733.0,287.04999999999995,4146.0,62.4,1772.0,1713.8,2134.1,-28.0,0.0,1.222521950778907,977.2322704113608,39.98393795894684,40,452044.59604199615,56.24,56.23,-0.98,-0.92,0.0,100733.0,1.4592665350816326e-05,3.5,3.498779306955256,3.499401533401451,38.20253036194165,0.6745935541775666,266.0253781438986,-0.3746610011014932,-16.592710285778928,0.1865150768909107,0.1800093694966672,0.0031786679888354,1.2535049415863304,-0.0012640744255697,-0.4739035604067382,0.0006292860425499,1.263537427756571,-0.0845646518720757,1.2535049415863304,0.1800096462023531,-0.0031629591958411,-0.0004909576269599,-0.524639735522886,-0.524639735522886,0.0005134481371808,0.0075988723
12,77.0,10.0,39.0,12.0,14.001,14,-0.005,416.68,100733.0,287.23,5046.7,61.5,1845.7,1776.9,2647.4,-24.4,0.0,1.221755826240592,976.5473784060044,39.982454132172194,40,451524.3633567171,56.24,56.22,-0.6,-0.75,0.0,100733.0,1.4608936411420156e-05,3.5,3.4986494652568325,3.4998940933127765,46.48132868432876,0.7071790559480626,287.0081506668046,-0.524714152301592,-20.03898346497924,0.1622400224395292,0.2191724672931925,0.0033345470729296,1.3533237171877182,-0.0017715826363019,-0.572733794371462,0.0005477679712017,1.3661448350677048,-0.1147603744329999,1.3533237171877182,0.2191727574527726,-0.0033154206543369,-0.0009395475213866,-0.6345082048497536,-0.6345082048497536,0.0003041815800615,0.0096880110
14,79.0,10.0,41.0,10.0,-4.994,-5,-0.005,105.07,100732.0,286.76,-21.1,-15.4,-166.3,-159.8,95.1,-11.4,0.0,1.223746137039498,245.11656301645405,20.01500302515628,20,226687.46980806312,61.52,61.53,1.57,1.27,0.0,100732.0,1.456660973851601e-05,1.6,1.601089574701099,1.6008293618659453,-0.1914085639809964,-0.3902568766783035,-17.648450937205453,-0.3139032220709487,1.082760941683989,0.0700158391932297,-0.0035957499885847,-0.0073312611028233,-0.3315390698103571,-0.0042223581729366,0.123290712918881,0.0009417932982724,-0.3299674725315388,-0.0324430470185121,-0.3315390698103571,-0.0035963897481152,0.0073309472865264,-0.0061828384070172,0.1243041857264623,0.1243041857264623,0.0014764429501486,0.1095203983
51,116.0,11.0,16.0,57.0,-3.994,-4,-0.005,105.11,100700.0,286.59,-44.9,-33.8,-107.0,-90.0,31.2,-8.2,0.0,1.224083057402585,245.20987685374905,20.01605722607741,20,226866.471309216,61.5,61.51,2.31,2.04,0.0,100700.0,1.4555883061664828e-05,1.6,1.601694611906841,1.601434216099345,-0.4015657432818954,-0.6428858640884066,-11.29818794502768,-0.4065091381717705,0.4676812527912319,0.0498056101531594,-0.0075408357067988,-0.0120724856649709,-0.212163961949764,-0.0054659330659892,0.0532331840204447,0.0006696876056274,-0.2111234555195061,-0.0223001677769691,-0.212163961949764,-0.0075418892012028,0.0120718275569459,-0.008800415172757,0.0553585909479399,0.0553585909479399,0.0012810277627693,0.1100559303
65,130.0,11.0,25.0,6.0,-2.994,-3,-0.005,104.9,100696.0,286.35,-68.0,-37.3,-44.1,-24.5,-26.9,-5.8,0.0,1.2250603407244698,244.719980859943,19.988075102140613,20,226878.0516845381,61.5,61.5,1.99,1.95,0.0,100696.0,1.4534792245856803e-05,1.6,1.5994554687712543,1.5994554687712543,-0.6058561318415243,-0.6677938700756096,-4.854672355688807,-0.3890931306031798,-0.096133733773019,0.0351983178725169,-0.0113998951989736,-0.012565326540873,-0.0913463661942156,-0.0052422302118329,-0.0109641967809994,0.0004742249884262,-0.0906262470526881,-0.0161554811930952,-0.0913463661942156,-0.0114009916871632,0.012564331664501,-0.0087470455630186,-0.0077511024807521,-0.0077511024807521,0.0009304479341996,0.1112362073
58,123.0,11.0,21.0,46.0,-1.994,-2,-0.005,104.99,100699.0,286.42999999999995,-76.1,-21.8,20.9,26.6,-67.0,-5.5,0.0,1.224754668531118,244.92993578609745,19.99914275198593,20,226897.70497850003,61.5,61.5,2.07,2.46,0.0,100699.0,1.4541580680731964e-05,1.6,1.6003411074823897,1.6003411074823897,-0.6727169196180478,-0.4155792353486777,1.2701855569548712,-0.3490235990361652,-0.5885530800967771,0.0347055695392779,-0.0126471090503994,-0.0078129087514559,0.0238795469306337,-0.0046983447356229,-0.0670678229746903,0.0004671854006203,0.024305141439589,-0.0118085658971192,0.0238795469306337,-0.0126477908071512,0.007811805053239,-0.0068800022384874,-0.063503197748302,-0.063503197748302,0.0007062910896066,0.1105818834
52,117.0,11.0,17.0,36.0,-0.999,-1,-0.005,105.11,100702.0,286.61,-83.0,-42.1,69.5,95.0,-102.5,-4.5,0.0,1.2240219491583837,245.20987685374905,20.01655686207169,20,226848.49078501336,61.5,61.5,2.29,2.3,0.0,100702.0,1.4557400163104433e-05,1.6,1.6017345930215483,1.6017345930215483,-0.7288632172706464,-0.7255372317560409,7.560377879150266,-0.3565925607430322,-1.0486372859808433,0.0285470963529706,-0.0136870185420882,-0.0136245612464936,0.1419731847693161,-0.0047947533913186,-0.1193597162215876,0.0003838450436697,0.1421902373526219,-0.0112096419085932,0.1419731847693161,-0.0136882074572349,0.0136233667769249,-0.0086268715945686,-0.1155019894181935,-0.1155019894181935,0.0005341958240182,0.1105603236
59,124.0,11.0,22.0,8.0,0.001,0,-0.005,104.87,100699.0,286.42999999999995,-80.6,-25.9,129.8,141.7,-124.1,-5.0,0.0,1.224754668531118,244.64999605114565,19.98771059421728,20,226768.0029011247,61.5,61.49,1.98,2.42,0.0,100699.0,1.4541580680731964e-05,1.6,1.599426300670354,1.599686412282107,-0.7001882986591593,-0.4719927503482872,13.572113236606656,-0.3132918478824157,-1.4342651136162086,0.0331685283113993,-0.0131786346032252,-0.0088836388784602,0.2554483150908863,-0.0042221711782979,-0.1636268851150795,0.0004470055802904,0.2554480850414146,-0.0131830930153848,0.2554483150908863,-0.0131794097967837,0.0088824887918115,-0.0067260589662758,-0.1599124478338949,-0.1599124478338949,0.0004468881883477,0.1098937067
50,115.0,11.0,15.0,58.0,1.006,1,-0.005,104.82,100705.0,286.61,-73.2,-14.0,189.0,187.1,-136.0,-2.5,0.0,1.2240584138348296,244.5333548882473,19.988627706458523,20,226538.71705983143,61.49,61.5,2.37,2.06,0.0,100705.0,1.455696649843546e-05,1.6,1.5997598119835856,1.5994996884369217,-0.6260947488386246,-0.250070588850993,19.671003713487387,-0.3077923738276142,-1.7574049363394495,0.0181875419572148,-0.0117896995107199,-0.0047089631473365,0.3704155374030287,-0.0041500344748213,-0.2005876437478657,0.0002452267585322,0.3701514492631219,-0.0182913086611687,0.3704155374030288,-0.011790110400384,0.004707934284036,-0.0054807309337108,-0.1972646819452929,-0.1972646819452929,0.0001489631630951,0.1093248627
64,129.0,11.0,24.0,34.0,2.006,2,-0.005,105.18,100696.0,286.37,-55.9,-15.2,238.5,237.1,-133.8,-1.3,0.0,1.224974782855927,245.37317642532733,20.015431909266372,20,227160.35537851072,61.51,61.5,1.92,2.05,0.0,100696.0,1.453659753678242e-05,1.6,1.6013841860796576,1.6016445737521905,-0.4614392541304093,-0.2529779701407966,25.80085004171887,-0.308922319210252,-2.007748585441894,0.0111687086910849,-0.0086594086040041,-0.0047474062764534,0.4841809638907278,-0.0041510136086778,-0.2283771688132382,0.0001500748210312,0.4835811264972837,-0.0256024461164059,0.4841809638907278,-0.0086598228603832,0.0047466505824205,-0.0054909735087728,-0.2259364887943953,-0.2259364887943953,-4.222402372034773e-05,0.1080750962
55,120.0,11.0,19.0,55.0,3.006,3,-0.005,104.96,100701.0,286.47,-36.7,-15.4,285.6,283.1,-124.9,-0.8,0.0,1.2246079768724318,244.85995072741883,19.997482928105317,20,226827.0499309837,61.49,61.49,2.32,2.21,0.0,100701.0,1.4544903031109626e-05,1.6,1.600468526354816,1.600468526354816,-0.2799103880563536,-0.2485602286233729,31.69928880459312,-0.3293425918606908,-2.203318253616481,0.008678555992799,-0.0052638322394247,-0.0046742793432985,0.5961184203812436,-0.0044346780552917,-0.251148110888973,0.0001168588660077,0.595022152284132,-0.0365173566791613,0.5961184203812436,-0.0052642401272045,0.0046738199694815,-0.0057503510427058,-0.2496644841476081,-0.2496644841476081,-0.0001848533950983,0.1077113342
63,128.0,11.0,24.0,8.0,4.001,4,-0.005,105.03,100697.0,286.39,-15.1,-20.6,328.0,330.7,-111.9,3.2,0.0,1.224901401166558,245.02324932723684,20.001753904839784,20,226979.18478851748,61.51,61.49,2.23,2.24,0.0,100697.0,1.4538258533876789e-05,1.6,1.600289843470157,1.60081034756626,-0.0769446854302125,-0.280749174899003,37.505736049931,-0.2874666162983487,-2.3819140197997277,-0.0166603187011449,-0.0014460127247222,-0.0052760873228526,0.7048410332051237,-0.0038682281202138,-0.2713246346636208,-0.0002241857302296,0.703022323711514,-0.0506219853989298,0.7048410332051236,-0.0014464731446926,0.0052759611143476,-0.0053266148996231,-0.2709170716849445,-0.2709170716849445,-0.0005952979649217,0.1081778269
62,127.0,11.0,23.0,46.0,4.005,4,-0.005,105.23,100696.0,286.41,-11.7,-20.1,330.4,330.9,-110.3,2.5,0.0,1.2248037029658596,245.48981925410047,20.02158685857174,20,227173.78043175768,61.5,61.5,2.2,2.73,0.0,100696.0,1.4540208370285818e-05,1.6,1.6021370957822594,1.6021370957822594,-0.045677969883449,-0.2814047438674832,37.704609619897646,-0.3236566923111615,-2.3940860222084144,-0.0121179879867434,-0.0008567894077647,-0.0052783563817655,0.70723174056684,-0.0043469341458571,-0.2721928456890345,-0.0001627529941757,0.7054448105083444,-0.0502502565181253,0.70723174056684,-0.0008572500279914,0.0052782815926863,-0.0058090388513485,-0.2719513570512399,-0.2719513570512399,-0.0005680793086753,0.1081778269
61,126.0,11.0,23.0,27.0,5.005,5,-0.005,105.22,100697.0,286.42999999999995,16.4,-19.9,374.3,374.4,-92.6,2.2,0.0,1.224730343469925,245.4664906698361,20.021235116965936,20,227143.8396352578,61.5,61.5,2.02,2.6,0.0,100697.0,1.45418694992803e-05,1.6,1.6021089492482825,1.6021089492482825,0.2164216476054167,-0.2804600095220265,43.464381038449815,-0.3382149416096005,-2.5871034685128547,-0.0094824687363568,0.0040598432546807,-0.0052611357988626,0.8153462286709242,-0.0045428932494725,-0.2941656955475658,-0.0001273682440099,0.8125915772725982,-0.0670886240787713,0.8153462286709243,0.0040593841185121,0.0052614900669888,-0.0059916723550994,-0.2953099744197686,-0.2953099744197686,-0.0006496121349564,0.1083153410
56,121.0,11.0,20.0,29.0,6.001,6,-0.005,104.97,100699.0,286.47,48.1,-23.3,410.1,413.9,-69.5,3.8,0.0,1.2245836552077636,244.88327907105685,19.998634102591048,20,226835.6022293942,61.5,61.5,2.07,2.51,0.0,100699.0,1.4545191909907454e-05,1.6,1.600300405110992,1.600300405110992,0.5110014885664825,-0.3134882363664236,48.612439592395205,-0.3232274496229194,-2.7568224193681403,-0.0192941378187298,0.0096086818619911,-0.0058947161566433,0.9140902267994376,-0.0043519215615086,-0.3142100711740639,-0.0002597755063253,0.9100856246540892,-0.0860082862016722,0.914090226799438,0.0096081674143775,0.0058955546498731,-0.00595325355094,-0.3169183066784072,-0.3169183066784072,-0.000880739734663,0.1098939381
16,81.0,10.0,42.0,52.0,7.006,7,-0.005,105.26,100726.0,286.65,96.0,-9.2,450.9,445.8,-36.5,-4.8,0.0,1.2241428221720356,245.55980506242267,20.02984518722937,20,226996.85536219808,61.52,61.54,1.47,1.44,0.0,100726.0,1.4557543339193271e-05,1.6,1.6022768656013993,1.6017561386382528,0.9538654254621776,-0.1930837510025382,53.84225722265766,-0.3512572447604008,-2.9662795315540302,0.037429906602765,0.0178867158771786,-0.0036206723742072,1.0096404916458903,-0.004716284184387,-0.3371516086475398,0.0005025663645859,1.0042835953071405,-0.1053960016926168,1.0096404916458903,0.0178863998458012,0.0036222332708408,-0.005755246765526,-0.3421930326108303,-0.3421930326108303,-0.0002031724417262,0.1103414370
53,118.0,11.0,18.0,17.0,8.001,8,-0.005,104.82,100702.0,286.6,146.9,-0.7,478.5,466.9,-3.6,-7.4,0.0,1.22406465753065,244.5333548882473,19.988576727505063,20,226545.4450518548,61.5,61.5,2.36,2.28,0.0,100702.0,1.4556497057773672e-05,1.6,1.5994956090763286,1.5994956090763286,1.4240799894098082,-0.0879821339851277,57.6002339895941,-0.358901656666911,-3.31624339473118,0.0551547472293377,0.0268161890600657,-0.0016567507137229,1.084643261653532,-0.0048391525420716,-0.3785111984657959,0.0007436639823311,1.077817508860643,-0.1244167618914555,1.084643261653532,0.0268160443791832,0.0016590908613711,-0.0053579719109858,-0.3860694209511228,-0.3860694209511228,-9.353280689739494e-06,0.1118845162
49,114.0,11.0,15.0,15.0,9.001,9,-0.005,105.01,100707.0,286.69,218.0,9.0,498.7,483.7,39.7,-11.4,0.0,1.22374114694087,244.97659253815743,20.009328357824764,20,226665.32330188205,61.5,61.49,2.51,2.18,0.0,100707.0,1.4563902641431796e-05,1.6,1.6011561646041197,1.601416557540305,2.0800345144527856,0.0191260302393312,60.90321705242908,-0.3168686888432144,-3.8975671396369327,0.0819771950764602,0.0390972969527795,0.0003595017672058,1.144765217083351,-0.0042646823892753,-0.4440577526159983,0.0011033172808618,1.136784970619204,-0.1404846306440721,1.144765217083351,0.0390973281763555,-0.000356089883039,-0.0042847024313046,-0.4550774418150151,-0.4550774418150151,0.0004193816076671,0.1119417409
60,125.0,11.0,22.0,53.0,10.001,10,-0.005,105.06,100699.0,286.45,286.3,-1.2,515.5,507.9,81.1,-4.2,0.0,1.2246691558993472,245.09323458026748,20.00650696039243,20,226953.07476061652,61.5,61.5,2.43,2.68,0.0,100699.0,1.4543386253385168e-05,1.6,1.6009303950125175,1.6009303950125175,2.7098911231721754,-0.0532737565668974,64.4101801674174,-0.2892425438855441,-4.589012838110813,0.035626176857656,0.0509121338851444,-0.0010008817711183,1.2101075531075782,-0.0038910141009256,-0.5225867454964911,0.0004792585304119,1.200561306938964,-0.1600152609776821,1.2101075531075782,0.0509120463478738,0.0010053246891292,-0.0041929345559164,-0.5369364815549871,-0.5369364815549871,-0.0002561914494668,0.1145310209
57,122.0,11.0,20.0,58.0,11.001,11,-0.005,104.51,100704.0,286.47,406.7,-8.2,520.6,508.5,165.2,3.5,0.0,1.224644459369434,243.81018484248943,19.954272957935963,20,226343.67158496456,61.51,61.5,2.22,2.28,0.0,100704.0,1.4544469734427338e-05,1.6,1.596491012755109,1.596750604789703,3.818602366913424,-0.0685762927818791,66.80211585916877,-0.3940373433644268,-5.2863339100908,-0.0140898719307616,0.0721196108734049,-0.0012951585620493,1.2616507660046172,-0.0053286536642833,-0.605164145431593,-0.0001905404372389,1.252228792226601,-0.1699616002256853,1.261650766004617,0.0721194975748877,0.0013014521804347,-0.0055527096253766,-0.6254912718295845,-0.6254912718295845,-0.0012466411157387,0.1097946876
13,78.0,10.0,40.0,15.0,12.005,12,-0.005,105.23,100731.0,286.91,514.3,-9.5,535.7,522.5,252.9,2.4,0.0,1.2230942056526706,245.48981925410047,20.035573883269574,20,226707.31832457928,61.51,61.52,1.55,1.6,0.0,100731.0,1.4580304254882532e-05,1.6,1.6029956945792678,1.6027351296094077,4.808664574256249,-0.1017931307473518,70.71872828283335,-0.4592171902618988,-5.809696437311093,-0.0068222345001402,0.090196934829386,-0.0019093509722536,1.3264831488335516,-0.0061676057753037,-0.6605267276079058,-9.162734713729724e-05,1.3162329334880736,-0.1876803026248924,1.3264831488335516,0.0901967678636365,0.0019172221324133,-0.0065400451151678,-0.685949001421982,-0.685949001421982,-0.0014499334945595,0.1106303031
54,119.0,11.0,18.0,56.0,13.001,13,-0.005,104.76,100700.0,286.53,673.3,-12.4,518.2,522.3,373.2,1.0,0.0,1.224339383034959,244.39338579817968,19.98061318215453,20,226549.06952510693,61.5,61.51,2.49,2.83,0.0,100700.0,1.4550464888023498e-05,1.6,1.5988583623131147,1.5985984276094385,6.269452809676694,-0.1642480164058795,72.56878910407613,-0.252717683311781,-6.440344758541534,0.0021062274627939,0.1181247686102233,-0.0030946494888177,1.367291800651602,-0.0034094014315902,-0.7355125869264776,2.841500773827948e-05,1.358817132068709,-0.1925002095710206,1.3672918006516015,0.118124498101324,0.003104957807723,-0.004178275140452,-0.7688064035901356,-0.7688064035901356,-0.0009122918322788,0.1039562276
15,80.0,10.0,42.0,9.0,14.001,14,-0.005,104.59,100727.0,286.73,790.1,-12.8,524.5,530.0,487.6,3.1,0.0,1.2238134261823068,243.9968085189798,19.96868490088081,20,226193.72246942628,61.5,61.52,1.43,1.3,0.0,100727.0,1.4564623288725763e-05,1.6,1.5979038554574616,1.5973843808620594,7.339622937021956,-0.1441741706591982,76.22406692381772,-0.2099148350060854,-6.808749137442582,-0.0115881675652815,0.1385129518168245,-0.0027208468507308,1.4384963096462655,-0.0028365532552903,-0.7788496491353856,-0.0001565894779623,1.4292724090499616,-0.2136301744029956,1.4384963096462655,0.1385127138507266,0.0027329343756845,-0.0034584943949421,-0.817889935754261,-0.817889935754261,-0.0009886815289698,0.1077903965
19,84.0,10.0,45.0,47.0,-4.994,-5,-0.005,26.19,100727.0,286.45,33.8,0.6,-64.2,-66.3,77.5,-0.6,0.0,1.2250096829787145,61.38974308738623,10.011361532529197,10,113600.09327677332,30.76,30.76,0.34,0.33,0.0,100727.0,1.4539343496079829e-05,1.6,1.601707135207486,1.601707135207486,0.3124380873930271,-0.0024547618488738,-6.074943478225712,-0.0415233900683714,0.3254004567244643,0.0005383612564945,0.0234352146552925,-0.000184125665779,-0.4556666110041188,-0.0022301236473375,0.1479424421150532,2.8914117246737016e-05,-0.4559768870644364,-0.0163201756407467,-0.4556666110041189,0.0234351984980624,0.0001861707733586,-0.002270840038044,0.1413371573014899,0.1413371573014899,0.0002264842062274,0.1002119655
18,83.0,10.0,45.0,0.0,7.006,7,-0.005,26.01,100727.0,286.47,48.0,-21.2,84.7,91.5,103.2,10.3,0.0,1.2249241585131174,60.97114669406343,9.97751936271449,10,113202.02743534732,30.76,30.76,0.33,0.34,0.0,100727.0,1.4541148650667354e-05,1.6,1.5962927622785898,1.5962927622785898,0.5159122972106202,-0.1968093292084648,13.050494428061278,-0.1798187506549244,-0.6975018723537434,-0.060863131029771,0.0389629918764056,-0.0148635346290644,0.9856061023023844,-0.009723946675432,-0.3192945134285855,-0.0032912576607155,0.9829994040723612,-0.0815455408041522,0.9856061023023844,0.0389616946399584,0.0148669347349373,-0.0134079474282996,-0.3302763483431674,-0.3302763483431674,-0.0049020944555707,0.1010861728
17,82.0,10.0,44.0,29.0,12.001,12,-0.005,26.13,100726.0,286.51,172.3,-5.1,74.6,78.6,332.2,4.3,0.0,1.2247409862678929,61.25021062310366,10.001074562112509,10,113439.98426379448,30.76,30.77,0.33,0.31,0.0,100726.0,1.4544903610619696e-05,1.6,1.6000613336986158,1.5995413267653371,1.666924576839676,-0.00664136042241,17.11583921313231,-0.1001539922482963,-1.4809653392791655,-0.0187535069608718,0.1253167561171058,-0.0004992869838891,1.286741750774483,-0.0053912892698398,-0.6748507719731927,-0.0010095012548212,1.2846756448793275,-0.1449727905635388,1.286741750774483,0.1253167120689261,0.0005102229319849,-0.0052012025704586,-0.7101716716637101,-0.7101716716637101,-0.002068917181905,0.1013894834
20,85.0,10.0,46.0,56.0,14.001,14,-0.005,26.01,100720.0,286.41,230.8,1.7,66.9,67.2,469.1,0.5,0.0,1.225095624083592,60.97114669406343,9.976821106643149,10,113228.40577393305,30.76,30.76,0.37,0.33,0.0,100720.0,1.4536743666146753e-05,1.6,1.5961810490287949,1.5961810490287949,2.198943992935657,0.056062664804954,19.26872976414055,-0.0999732304544093,-1.6452334087325873,0.0062867935473683,0.1660697707665715,0.0042339931906552,1.455222845681394,-0.0054061901685375,-0.753136330580784,0.0003399670223011,1.452169089399502,-0.1909388256697328,1.4552228456813938,0.1660701396198326,-0.0042195008531122,-0.0041699211000528,-0.7999435884178117,-0.7999435884178117,-0.0006789987205728,0.0990940685
24,89.0,10.0,50.0,10.0,-4.994,-5,-0.005,417.8,100726.0,287.02,2221.6,23.6,-1042.1,-1089.9,2272.3,-38.6,0.0,1.2225647689206816,979.192521581212,40.02331929695356,40,452542.4623059884,11.11,11.11,0.04,0.04,0.0,100726.0,1.4590968102379524e-05,17.0,17.728636725512217,17.728636725512217,20.44643831398157,-0.0922278696877423,-74.94012665273925,-0.9634751975297328,7.585450566008063,0.2419478440450511,0.0961502371515444,-0.0004337054408343,-0.3524091012418736,-0.0032441759978265,0.2162139622654271,0.0008146773164366,-0.3594413074780085,0.0651075204634845,-0.3524091012418736,0.0961501989374918,0.0004420961302466,-0.0032827188186431,0.189113732520607,0.189113732520607,0.0010973499922642,-0.0000000000
23,88.0,10.0,49.0,20.0,7.005,7,-0.005,418.08,100724.0,286.89,2738.4,36.2,1368.6,1307.1,1586.4,-41.9,0.0,1.2230944701744102,979.8538255145394,40.02816144645072,40,452952.8953695864,11.11,11.11,0.05,0.05,0.0,100724.0,1.4579510487840156e-05,17.0,17.73078159282742,17.73078159282742,25.250225250714355,0.0775650080395474,202.979542195783,-0.9857308693304272,-7.513034924420477,0.2743315418244366,0.1186601096403113,0.0003645065446679,0.9538756384365484,-0.0033168743530486,-0.2140053133868463,0.0009230950187527,0.9612267533588345,0.0014435545774816,0.9538756384365484,0.1186601409976838,-0.0003541514952731,-0.0033027221542677,-0.2474500175088926,-0.2474500175088926,0.0005134179403481,0.0000000000
21,86.0,10.0,48.0,8.0,12.005,12,-0.005,417.53,100726.0,286.73,4323.3,60.9,1715.8,1653.3,2339.6,-24.6,0.0,1.2238012763771289,978.5548425172368,39.990067036080994,40,452979.871605592,11.12,11.1,0.02,0.04,0.0,100726.0,1.4564767885188332e-05,17.0,17.697977608303564,17.72986585624645,39.83379810534717,0.6934618876381641,263.91784757523453,-0.4314323238166077,-15.648863091655915,0.1640162247676908,0.187442180832884,0.0032631587929331,1.241893549276739,-0.0014536487037786,-0.4463423150947322,0.0005526289046287,1.2537200789667289,-0.0749674761894952,1.241893549276739,0.1874424648834814,-0.0032468013644654,-0.0006371858213033,-0.4991734501488768,-0.4991734501488768,0.0004080098375388,0.0000000000
22,87.0,10.0,48.0,43.0,14.001,14,-0.005,417.67,100726.0,286.85,5276.0,110.8,1785.8,1684.0,2907.9,-42.0,0.0,1.223289314887969,978.8854900785872,40.0051913656305,40,452814.1980106368,11.11,11.1,0.04,0.01,0.0,100726.0,1.4575607218085408e-05,17.0,17.720606819081244,17.736571329729067,48.59090976857592,1.2776970977515627,284.03622339663053,-0.4676468658318733,-18.88634921900429,0.277320992022061,0.2285724695291125,0.0060103089720728,1.3361112464594478,-0.001575136127236,-0.538501064134189,0.000934077282006,1.3517179465076352,-0.1014752670912353,1.3361112464594476,0.2285729931571755,-0.0059903622383491,-0.0001106342309407,-0.60292489314479,-0.60292489314479,0.00087956053418,0.0000000000
27,92.0,10.0,52.0,34.0,-4.994,-5,-0.005,105.16,100724.0,286.54999999999995,610.7,-27.2,-279.6,-262.5,622.8,-11.1,0.0,1.224545707724085,245.32651935860207,20.0170348945386,20,226987.95404280777,2.36,2.61,0.05,0.04,0.0,100724.0,1.4548803421317832e-05,17.0,41.74111440373223,37.74292336889199,5.621210917414748,-0.5722602809375046,-17.923429994563755,-0.3505976420188876,1.8064594777819616,0.0662933721631571,0.1055081881101957,-0.0107411278915177,-0.3364165926575976,-0.0047119041699218,0.2055200362756741,0.00089095869252,-0.3443241322706933,0.0758221175494228,-0.3364165926575975,0.1055072503682161,0.0107503351769585,-0.0076323838624791,0.1757822402758639,0.1757822402758639,0.0015519863134418,-0.0000000000
28,93.0,10.0,53.0,33.0,7.001,7,-0.005,104.76,100724.0,286.53,727.3,-15.3,309.6,309.5,527.2,0.9,0.0,1.224631181894868,244.39338579817968,19.97823260113588,20,226576.06482671705,2.35,2.59,0.04,0.04,0.0,100724.0,1.4546997877605797e-05,17.0,41.8374782231862,37.96064626428092,6.762038140213792,-0.21749670739316,50.67133111448018,-0.3149441119132815,-1.7739291780679205,-0.0011081706537265,0.1274057266071758,-0.0040979251322616,0.9547147805038904,-0.0042488950197574,-0.2025896574953801,-1.4950274012287794e-05,0.963125509781202,0.010088790492102,0.9547147805038904,0.1274053685106209,0.0041090433637197,-0.0053617937419171,-0.2384993397192346,-0.2384993397192346,-0.0006683699712531,0.0000000000
25,90.0,10.0,51.0,12.0,12.001,12,-0.005,104.54,100724.0,286.83,1133.8,14.0,372.3,347.4,859.1,-9.4,0.0,1.2233503209160008,243.88016865176184,19.96768979106138,20,226035.53447948475,2.33,2.6,0.05,0.05,0.0,100724.0,1.4574089834027378e-05,17.0,42.174330436326464,37.794688429477176,10.50842847458362,0.1304544013184162,64.85437891275913,-0.4250350095717798,-3.953859291832948,0.0688473133660043,0.198409319229205,0.0024631055936331,1.2245135607323352,-0.0057461925227734,-0.4524964373608104,0.0009307701915551,1.239005562120184,-0.0605387100095892,1.224513560732335,0.1984095334202301,-0.0024457911048403,-0.0051350770382459,-0.5084186929258186,-0.5084186929258186,-0.0001573029628015,0.0000000000
26,91.0,10.0,51.0,38.0,14.001,14,-0.005,104.9,100723.0,286.69,1396.6,-5.2,358.8,359.3,1094.6,-2.3,0.0,1.2239355709466595,244.719980859943,19.99725729301139,20,226564.5726128457,2.3,2.55,0.04,0.04,0.0,100723.0,1.4561589143598505e-05,17.0,42.7876953376656,38.5928232457376,12.91981042515825,-0.0866612442334779,70.50879135352191,-0.2510829370642663,-4.817052046024621,0.0221559424832027,0.2431014181365696,-0.0016306331654537,1.326705780121903,-0.0033828265133172,-0.5493920236327415,0.0002985057867175,1.3461070192643807,-0.0851024041731103,1.326705780121903,0.24310127491132,0.0016518477600315,-0.0038004927743576,-0.6179108799347698,-0.6179108799347698,-0.0006298491481544,0.0000000000
31,96.0,10.0,56.0,53.0,-4.995,-5,-0.005,26.18,100720.0,286.33,178.4,-0.9,-89.0,-91.8,199.9,0.4,0.0,1.225437913225235,61.36648765353532,10.007716059006938,10,113635.4736843289,0.57,0.58,0.05,0.04,0.0,100720.0,1.4529524055411016e-05,17.0,86.4045108009302,84.91477785608657,1.642757631205756,-0.0135009617541506,-6.151095502023865,-0.0683050029024388,0.5119766615186847,-0.0063062730297413,0.1232659160540511,-0.0010130577917416,-0.4615534314921458,-0.0036698913160696,0.232857021645524,-0.0003388234484327,-0.4705332064399135,0.0826108819720081,-0.4615534314921458,0.1232658271787195,0.0010238147683237,-0.0039699040995746,0.1981141573143065,0.1981141573143065,8.118119290611019e-06,0.0000000000
29,94.0,10.0,55.0,1.0,7.001,7,-0.005,26.18,100724.0,286.42999999999995,193.7,-19.1,52.8,61.5,232.1,9.8,0.0,1.2250587317960289,61.36648765353532,10.009264738424235,10,113587.01992775928,0.57,0.6,0.04,0.05,0.0,100724.0,1.4537971416633854e-05,17.0,86.4178817725535,82.09698768392583,1.8563828590053737,-0.1688631238256674,12.422302151923724,-0.1240405129864545,-0.437535843012139,-0.057894476856426,0.1392954927224289,-0.0126708086760441,0.932119519745089,-0.0066644488998852,-0.1989998781677902,-0.0031105545543605,0.9421479226920008,0.0246439678166357,0.9321195197450888,0.1392943864553809,0.0126829644526877,-0.0097803012793573,-0.2382607262637338,-0.2382607262637338,-0.0042794506568519,-0.0000000000
32,97.0,10.0,57.0,57.0,12.001,12,-0.005,26.01,100721.0,286.29,314.2,1.2,36.8,38.1,472.6,-0.2,0.0,1.22562129801048,60.97114669406343,9.974681327736397,10,113289.63834815651,0.55,0.57,0.05,0.05,0.0,100721.0,1.4525770533935387e-05,17.0,89.25090665476375,86.11929589494748,2.9724956704905146,0.0390552550837133,15.763709162045862,-0.1005495175093294,-1.035564337600634,0.0102362380880056,0.2244903354468611,0.0029495509116279,1.1905148905029252,-0.0054373536849749,-0.4740489228830317,0.0005535386769303,1.2111729612163018,-0.0279584197831499,1.1905148905029252,0.2244905919889393,-0.0029299604229595,-0.0046204414457431,-0.5373221902855131,-0.5373221902855131,-0.0004192821528389,0.0000000000
30,95.0,10.0,55.0,47.0,14.001,14,-0.005,26.22,100719.0,286.37,372.2,8.9,30.4,27.8,609.3,-2.9,0.0,1.2252545796701568,61.45950944446812,10.016047497321248,10,113700.69901570203,0.55,0.57,0.05,0.04,0.0,100719.0,1.4533277986912524e-05,17.0,89.62104059879427,86.47644268304711,3.499885715621712,0.1296542872074506,18.05897830232162,-0.0742660448062315,-1.197582968628042,0.0281832252881286,0.2622198441001861,0.0097140106108919,1.3530220298071158,-0.0039841268861335,-0.5438598050951294,0.0015119365236341,1.3762669423627494,-0.0729188805645144,1.3530220298071156,0.2622206908090695,-0.0096911275757147,-0.0015749774638623,-0.6177672465044074,-0.6177672465044074,0.0010859709576174,0.0000000000
