Unnamed: 0,run,hr,min,sec,AoA,rounded_AoA,AoS,dPb,pBar,temp,B1,B2,B3,B4,B5,B6,rpmWT,rho,q,V,rounded_v,Re,rpsM1,rpsM2,iM1,iM2,dPtQ,pInf,nu,rounded_J,J_M1,J_M2,FX,FY,FZ,MX,MY,MZ,CFX,CFY,CFZ,CMX,CMY,CMZ,CN,CT,CL,CD,CYaw,CMroll,CMpitch,CMpitch25c,CMyaw,Thrust coefficient
0,1.0,9.0,25.0,38.0,-4.994,-5,0.0,418.34,100774.0,286.36,-36.3,9.1,-1209.8,-1254.3,1758.8,-27.4,0.0,1.225966469584696,980.4678999495408,39.99377431021692,40,454279.5756552534,123.02,123.02,12.65,12.16,0.0,100774.0,1.452444411971774e-05,1.6,1.5999004671083237,1.5999004671083237,-0.3246083142276416,-0.1885840642753536,-107.95438978847412,-1.0054771668494875,22.751908689209547,0.1720628586144442,-0.0015244986380945,-0.0008856709349486,-0.5069997070175013,-0.003381199442382,0.6476716650937002,0.0005786096997356,-0.5049423348726109,-0.0456537563112372,-0.5069997070175013,-0.0015244986380945,0.0008856709349486,-0.0035666763479188,0.6481013495600308,0.6481013495600308,0.0008868974372613,0.3978804986532626
1,2.0,9.0,26.0,27.0,7.001,7,0.0,417.67,100780.0,286.54999999999995,-173.1,-6.8,1515.9,1477.2,175.9,-17.9,0.0,1.2252265242090592,978.8854900785872,39.97355269083673,40,453541.67758026,123.04,123.02,12.93,11.3,0.0,100780.0,1.4540719148728096e-05,1.6,1.598831596393527,1.5990915267457286,-1.5351101867440975,-0.3197927790106795,187.76516795230083,-0.9940423309198216,2.3947969084879963,0.1222986194157812,-0.0072211845395476,-0.001504310694823,0.8832505572505521,-0.0033481502856829,0.0682821581160004,0.0004119282899719,0.8757848965954966,-0.1148238097468479,0.8832505572505521,-0.0072211845395476,0.001504310694823,-0.0037942282676808,0.0703174704131822,0.0703174704131822,-5.360887308847312e-05,0.16053362776259608
3,4.0,9.0,27.0,37.0,12.005,12,0.0,418.79,100780.0,286.53,1362.7,44.5,1992.2,1935.0,728.7,-21.3,0.0,1.2253120459013225,981.5307358716826,40.026129687893,40,454194.58519857295,123.03,123.03,13.17,12.34,0.0,100780.0,1.453891460829496e-05,1.6,1.6010646564619424,1.6010646564619424,12.59599930395778,0.4642758237280038,258.5470622579608,-0.5360375447199472,-7.849799812459178,0.1469087481471287,0.0590921110521613,0.0021780755835663,1.2129320863297433,-0.0018006249397819,-0.2232158958773352,0.0004934869924532,1.1986955832294537,-0.1944865609316615,1.2129320863297433,0.0590921110521614,-0.0021780755835663,-0.0012634173224111,-0.2398711827810584,-0.2398711827810584,0.0002199070867772,0.13909876894263573
2,3.0,9.0,27.0,8.0,14.001,14,0.0,417.65,100783.0,286.53,2273.4,-9.4,2083.0,2053.8,1185.7,3.9,0.0,1.225348520758811,978.8382546016217,39.9705983315717,40,453577.94741920487,123.03,123.03,13.23,11.84,0.0,100783.0,1.4538481829514562e-05,1.6,1.5988433751983104,1.5988433751983104,20.96673303443639,-0.0824400898703017,282.6153958330451,-0.6683842943258074,-12.118078176906156,-0.0189484585771465,0.0986326297780289,-0.0003878183048207,1.3294918030858187,-0.0022513719865107,-0.3455359647063526,-6.382560031751939e-05,1.313857663988279,-0.2259532892183099,1.3294918030858187,0.0986326297780289,0.0003878183048207,-0.0022751055910891,-0.3733358641814568,-0.3733358641814568,-0.0006123658234981,0.8479069457596426
4,5.0,9.0,28.0,46.0,-4.994,-5,0.0,417.74,100780.0,286.67,739.0,0.8,-1301.7,-1340.7,2288.8,-25.6,0.0,1.2247136446510132,979.0508145394946,39.9852979195156,40,453337.3226802247,109.36,109.37,7.33,7.61,0.0,100780.0,1.4551548150687052e-05,1.8,1.7993602865992873,1.7991957661378626,6.808086074824027,-0.2962363473245357,-105.85938423916102,-1.0457711411179025,22.12142558007533,0.1585677842684547,0.032019945319777,-0.0013932655284924,-0.4978802643899918,-0.0035217893472285,0.6306353612102162,0.0005340005202795,-0.4987776028082099,-0.0114427926759729,-0.4978802643899918,0.032019945319777,0.0013932655284924,-0.0038531397751577,0.6216104445767309,0.6216104445767309,0.000867394650707,0.279625596601046
5,6.0,9.0,29.0,34.0,7.001,7,0.0,418.19,100779.0,286.77,665.8,-5.0,1382.8,1343.3,816.6,-18.9,0.0,1.2242744247950177,980.1136254735142,40.0141708978296,40,453378.935911482,109.36,109.37,7.61,7.67,0.0,100779.0,1.4560719102782052e-05,1.8,1.8006595864229031,1.8004949471629208,6.182850156030476,-0.3003658119972966,187.13877939327983,-1.007109076873043,2.5722199777892536,0.1271068239290161,0.0290477886257468,-0.0014111554375595,0.8792009462164083,-0.0033879113592448,0.0732490710527347,0.0004275869044529,0.8761861836017093,-0.0783316635680966,0.8792009462164082,0.0290477886257468,0.0014111554375595,-0.0038095411389332,0.0650618656057425,0.0650618656057425,-3.993344368671364e-05,0.11242530475872484
6,7.0,9.0,30.0,1.0,12.001,12,0.0,418.28,100783.0,286.73,2068.0,35.7,1832.1,1786.7,1342.2,-18.5,0.0,1.2244938152722846,980.3261899092488,40.014924561252975,40,453517.9373438719,109.35,109.36,8.48,7.29,0.0,100783.0,1.4556530466482244e-05,1.8,1.8008581741632272,1.8006935016893646,19.08508325953511,0.361383730641242,254.7110413543836,-0.4742500148068205,-6.734384612573228,0.1270075994489414,0.0896446208733882,0.0016974569658719,1.1964042505851675,-0.0015950294404247,-0.1917333904470719,0.0004271604722274,1.1888953006944776,-0.1610815099767117,1.1964042505851675,0.0896446208733882,-0.0016974569658719,-0.0011810107474454,-0.2169999929332114,-0.2169999929332114,0.0001722583374872,0.10289284787648574
7,8.0,9.0,30.0,28.0,14.001,14,0.0,417.78,100783.0,286.71,2969.0,-26.7,1918.8,1905.6,1790.5,7.3,0.0,1.2245792321614948,979.14528586362,39.989421501483726,40,453285.1073560092,109.36,109.36,7.95,7.9,0.0,100783.0,1.455472522584694e-05,1.8,1.7995458500443045,1.7995458500443045,27.36667317463562,-0.3135074187711352,278.3200324889282,-0.6732334899858697,-11.022259574468467,-0.0430040997475808,0.1286991413652354,-0.0014743529602594,1.308874811983661,-0.0022669948318838,-0.3141911430546615,-0.0001448087080154,1.3011274293362034,-0.191791957762508,1.3088748119836608,0.1286991413652354,0.0014743529602594,-0.0025678163451338,-0.3504653780673303,-0.3504653780673303,-0.0007617611423326,0.628021592077027
8,9.0,9.0,31.0,22.0,-4.994,-5,0.0,417.09,100781.0,286.77,2390.3,4.8,-1503.6,-1546.6,3471.4,-25.9,0.0,1.2242987210159522,977.5156762764798,39.96070718657001,40,452782.1529720835,56.19,56.18,-0.85,-0.81,0.0,100781.0,1.4560430145159034e-05,3.5,3.4998580451317816,3.500481017371926,21.999776411375148,-0.230595006736574,-101.79649907585645,-1.0774834388411527,21.4731584042244,0.1572363500521499,0.1036323430350175,-0.0010862428959928,-0.4795234967269189,-0.0036342837180518,0.6131159836433915,0.000530348297042,-0.4867244817302228,0.0614957341657531,-0.4795234967269189,0.1036323430350175,0.0010862428959928,-0.0038793182913519,0.5839069001461089,0.5839069001461089,0.0008660351690025,0.027168972542058505
10,11.0,9.0,33.0,10.0,7.006,7,0.0,417.91,100780.0,286.83,2479.3,24.2,1004.0,939.9,2426.0,-23.5,0.0,1.2240304727961018,979.4523186896898,40.00465525970596,40,453107.0501855664,56.19,56.19,-0.92,-0.87,0.0,100780.0,1.4565991510642724e-05,3.5,3.5037071265961,3.5037071265961,22.86749282108032,0.1160827788541602,178.7198160639112,-1.020667461025635,5.858593831998956,0.1538472338742386,0.1075068244559898,0.0005457393613843,0.8402145369726625,-0.0034358399611785,0.166947735446551,0.0005178909823682,0.847053937935793,0.0042203876910026,0.8402145369726625,0.1075068244559898,-0.0005457393613843,-0.0033206849695284,0.1366466178601076,0.1366466178601076,0.000108989245332,0.008354736753081089
11,12.0,9.0,33.0,54.0,12.001,12,0.0,418.47,100780.0,286.85,3897.8,61.9,1402.3,1340.3,2996.8,-28.0,0.0,1.2239451299010142,980.7749395131488,40.03305227909012,40,453372.4788255472,56.19,56.2,-0.93,-0.78,0.0,100780.0,1.4567797307490283e-05,3.5,3.506194208125599,3.505570330152622,35.92014876723437,0.6699850115392102,241.63435642665,-0.4748627268676659,-3.025571616730872,0.1854641862559508,0.1686434769082356,0.0031455493838444,1.1344623952517003,-0.0015963594125639,-0.0861010639645294,0.0006234801821068,1.1447333826840254,-0.0709297618261361,1.1344623952517003,0.1686434769082355,-0.0031455493838444,-0.0008239035388859,-0.1336337285171414,-0.1336337285171414,0.0004385401382801,0.009276108608582979
9,10.0,9.0,32.0,35.0,14.001,14,0.0,417.77,100781.0,286.85,4718.9,37.0,1480.9,1436.5,3443.2,-23.9,0.0,1.223957274623478,979.1216680187064,39.99909816750317,40,452992.4448908331,56.19,56.21,-0.64,-0.68,0.0,100781.0,1.456765275844525e-05,3.5,3.50322042265058,3.501973946784132,43.46670402583107,0.3257872265311677,263.305377847558,-0.5628728794194595,-6.566388399171878,0.1572791695716521,0.2044187975984231,0.001532139015667,1.238294228814999,-0.0018954206933224,-0.1871803896423736,0.0005296225907031,1.25096321422349,-0.1012456349071542,1.2382942288149987,0.2044187975984231,-0.001532139015667,-0.0015482381910642,-0.2447964345237374,-0.2447964345237374,0.0001393093628224,0.0742611951227925
15,16.0,9.0,37.0,6.0,-4.994,-5,0.0,104.76,100777.0,286.35,112.2,-33.9,-332.3,-311.6,541.6,-6.5,0.0,1.22604578093658,244.39338579817968,19.966703934871628,20,226817.7804950563,61.5,61.5,1.39,1.42,0.0,100777.0,1.4523109836458687e-05,1.6,1.5977453375961548,1.5977453375961548,1.035428006446708,-0.6229802725673741,-26.16870609062667,-0.3457313114919746,5.572254997125372,0.0369473323128686,0.019508830736437,-0.0117377708676859,-0.4930529737799598,-0.004664243565782,0.6363733373922366,0.0004984545839062,-0.4928795271615441,-0.0234861903036101,-0.4930529737799598,0.019508830736437,0.0117377708676859,-0.0078989126353467,0.6308747155409252,0.6308747155409252,0.0011841739296656,0.35562868882440096
14,15.0,9.0,36.0,23.0,7.006,7,0.0,105.02,100780.0,286.42999999999995,79.8,-13.5,336.0,334.8,241.4,-3.3,0.0,1.2257398335094296,244.9999209280697,19.993960050580515,20,227021.36939479416,61.49,61.5,1.5,1.54,0.0,100780.0,1.4529893163018737e-05,1.6,1.6001865781405875,1.5999263852010526,0.8051595208066565,-0.2420360756569275,46.8142838888846,-0.3505557344377469,0.7861248571693367,0.0272116487861738,0.0151327120975212,-0.0045489895548408,0.8798592848189546,-0.0047176214251263,0.0895562759287206,0.0003662021319735,0.8751355000269007,-0.0922996026546989,0.8798592848189546,0.0151327120975212,0.0045489895548408,-0.005999636549268,0.085291076105462,0.085291076105462,-0.0003683275189796,0.14360676392080562
12,13.0,9.0,35.0,11.0,12.001,12,0.0,104.86,100781.0,286.56,442.3,-2.0,424.9,411.2,501.2,-3.4,0.0,1.2251959248525426,244.62666780005625,19.983158165813023,20,226717.96788615503,61.51,61.51,1.5,1.53,0.0,100781.0,1.4541477161049192e-05,1.6,1.5988020453281575,1.5988020453281575,4.146611694137262,-0.0526289907256252,63.19556342429579,-0.4256705703335163,-1.9008419122261155,0.0306913406148423,0.0780531347299741,-0.0009906540584973,1.1895523840023934,-0.0057372236673061,-0.2168765723854342,0.0004136604642854,1.1797829853292274,-0.1709949521319534,1.1895523840023934,0.078053134729974,0.0009906540584973,-0.0059709588270751,-0.2388760800949347,-0.2388760800949347,-0.0008369145914107,0.1300783013851861
13,14.0,9.0,35.0,48.0,14.001,14,0.0,104.88,100781.0,286.47,696.9,-5.6,427.2,429.6,710.2,-2.3,0.0,1.2255808434591569,244.6733243114899,19.981925118111658,20,226830.63937104988,61.49,61.48,1.45,1.6,0.0,100781.0,1.453335728099315e-05,1.6,1.5992233803870273,1.599483501301209,6.482459154648602,-0.0950154126558087,69.56625597499507,-0.2172809736394793,-3.0274403466392683,0.023383516615989,0.1219983473225103,-0.0017881675823383,1.3092204757322794,-0.0029279727572665,-0.3453499623014519,0.0003151049006909,1.299841641661089,-0.1983773107739002,1.3092204757322792,0.1219983473225103,0.0017881675823383,-0.003406250449551,-0.3797355586231483,-0.3797355586231483,-0.0005183606419305,0.7875402233850711
19,20.0,9.0,40.0,11.0,-4.994,-5,0.0,26.21,100774.0,286.15,67.9,-2.4,-104.4,-104.6,187.7,1.3,0.0,1.2268661828770695,61.43625398285263,10.007572925262805,10,113821.98751270965,30.75,30.76,0.31,0.35,0.0,100774.0,1.4505507858112e-05,1.6,1.6016216831929462,1.601100999940933,0.6262619101969987,-0.0264193643566768,-8.181867949922621,-0.0401366715302397,1.4218206594195697,-0.0120473338695382,0.0469388075353759,-0.0019801514966077,-0.6132372394490215,-0.0021540143028952,0.6459375535918055,-0.0006465441322703,-0.6149953701302642,-0.0066225537550827,-0.6132372394490215,0.0469388075353759,0.0019801514966077,-0.0027581127461502,0.6327077113590539,0.6327077113590539,-0.0004039921002354,0.3225435405212184
18,19.0,9.0,39.0,28.0,7.006,7,0.0,26.26,100774.0,286.23,50.1,-18.8,58.5,66.7,173.9,8.4,0.0,1.2265232792868446,61.55253138347868,10.018439023171034,10,113888.9438277247,30.77,30.76,0.29,0.3,0.0,100774.0,1.4512720582121122e-05,1.6,1.6023185456439308,1.6028394554442051,0.5352794423768782,-0.1816445343794657,11.659736923881354,-0.1439210434528778,0.1970637146487637,-0.0485873156148516,0.0400438132494449,-0.013588677682399,0.8722552949994072,-0.0077092181710119,0.0893575366360903,-0.0026026090933765,0.8706267750427691,-0.0666470195334103,0.8722552949994071,0.0400438132494448,0.013588677682399,-0.0111356195600584,0.0780710690093051,0.0780710690093051,-0.003941424474891,0.1266185670582137
16,17.0,9.0,38.0,32.0,12.001,12,0.0,26.11,100774.0,286.31,158.6,-1.3,48.7,51.2,394.0,2.4,0.0,1.2261805673230886,61.203699875715024,9.991406341728528,10,113525.2063617158,30.76,30.76,0.33,0.34,0.0,100774.0,1.451993464763517e-05,1.6,1.598514525352572,1.598514525352572,1.5409549310723691,0.0308004135328791,15.364769483146198,-0.0875091852453745,-0.5489242118529436,-0.0064056960709126,0.1159345928575444,0.0023172860742224,1.1559768935869812,-0.0047141990835067,-0.2503255339984054,-0.0003450806502431,1.1548179664948446,-0.1269601220413852,1.1559768935869812,0.1159345928575444,-0.0023172860742224,-0.0039005541787064,-0.2830020431250516,-0.2830020431250516,-0.001148575961988,0.1187423242176738
17,18.0,9.0,38.0,55.0,14.001,14,0.0,26.36,100773.0,286.27,214.0,-0.2,43.0,45.2,527.6,1.7,0.0,1.2263397300333068,61.78508687884528,10.038097957495838,10,114082.93973716829,30.75,30.75,0.34,0.34,0.0,100773.0,1.4516471496973385e-05,1.6,1.6065069389757118,1.6065069389757118,2.044430187578953,0.0407717080253973,17.890916517633578,-0.0876216192778259,-0.72589219775267,-0.0016069391570849,0.152366469448181,0.0030386174313726,1.3333670191067362,-0.0046758392124042,-0.3279132064177416,-8.575268506304874e-05,1.3306180554924067,-0.1747533663518178,1.333367019106736,0.1523664694481809,-0.0030386174313726,-0.0036851804577803,-0.3708581481025421,-0.3708581481025421,-0.0009747933515787,0.708496329555135
22,23.0,9.0,43.0,21.0,-4.994,-5,0.0,418.1,100769.0,286.81,2574.4,-1.6,-1536.9,-1575.3,3621.0,-21.7,0.0,1.2239822170150263,979.901061787423,40.01460718924122,40,453226.4864464768,11.1,11.11,0.04,0.04,0.0,100769.0,1.4565775632141964e-05,17.0,17.74074589861372,17.724777630478155,23.693507722494232,-0.2802148822995259,-101.92140036638273,-1.0601204282375796,21.63054400122119,0.1294339903881644,0.1113391531630882,-0.0013167694739138,-0.4789431155107381,-0.0035670149590254,0.6161063072622929,0.0004355099360631,-0.4868171925189293,0.0692238108615349,-0.4789431155107381,0.1113391531630882,0.0013167694739138,-0.0038852886557164,0.5847250364542163,0.5847250364542163,0.0007720765602565,-0.0
21,22.0,9.0,42.0,22.0,7.006,7,0.0,417.91,100773.0,286.66,2624.9,-11.9,948.6,907.9,2576.7,-12.1,0.0,1.2246712988091633,979.4523186896898,39.99418739855961,40,453434.73645789217,11.1,11.11,0.04,0.04,0.0,100773.0,1.4551656350904194e-05,17.0,17.731692646733176,17.715732527339174,24.207263071111665,-0.318418734431728,177.06401330776498,-1.1044167052373142,6.400378859109981,0.0785127977686335,0.1138054793285825,-0.0014969803315951,0.8324301201311862,-0.0037177623413549,0.1823865567693414,0.0002642950993718,0.8400959119516345,0.0114215037968345,0.8324301201311862,0.1138054793285825,0.0014969803315951,-0.0041410181515278,0.150310144610701,0.150310144610701,-0.0002427718650867,-0.0
20,21.0,9.0,41.0,50.0,12.001,12,0.0,417.86,100772.0,286.62,4073.0,62.0,1346.5,1280.4,3172.2,-25.0,0.0,1.2248300565312815,979.3342289561042,39.98918446065457,40,453486.023440722,11.11,11.09,0.04,0.04,0.0,100772.0,1.4548190547460216e-05,17.0,17.713516437563595,17.74546146269897,37.53218843044013,0.709360934230925,238.8474211036284,-0.5061080032270276,-2.45068213454455,0.1656492944698575,0.1764711578792208,0.0033353169813164,1.123027532400377,-0.0017039004854457,-0.0698435799899398,0.0005576871171,1.1351760405361402,-0.0608955259867528,1.1230275324003764,0.1764711578792208,-0.0033353169813164,-0.0008630963635896,-0.1195824996592033,-0.1195824996592033,0.0003660357328081,-0.0
23,24.0,9.0,44.0,27.0,14.001,14,0.0,417.92,100766.0,286.87,4955.4,118.0,1437.0,1328.9,3689.8,-40.4,0.0,1.2236897846451826,979.4759366641714,40.01070612062624,40,453000.30819360144,11.1,11.1,0.04,0.04,0.0,100766.0,1.4571627426848984e-05,17.0,17.739016333540047,17.739016333540047,45.6423711612887,1.4152241583025196,260.06930724997073,-0.4562278756561143,-5.662935511079219,0.2663198891822448,0.214573066840303,0.0066532255048794,1.222632992717718,-0.001535748153919,-0.1613683231872425,0.0008964824378066,1.2382239619235065,-0.0876039725902397,1.2226329927177175,0.2145730668403029,-0.0066532255048794,0.0001125037555082,-0.2218463789954434,-0.2218463789954434,0.0008970683197301,-0.0
26,27.0,9.0,47.0,0.0,-4.994,-5,0.0,105.23,100769.0,286.37,697.3,-21.3,-400.5,-389.4,961.1,-7.8,0.0,1.2258628336141346,245.48981925410047,20.01293578522738,20,227296.686559125,2.36,2.64,0.04,0.04,0.0,100769.0,1.4526066801931572e-05,17.0,41.73256661473079,37.306385307107824,6.418198867133211,-0.4361168189159633,-24.81039034371714,-0.3172663405954531,5.347140231605799,0.044542054272618,0.1203872418217882,-0.008180316943784,-0.4653726884807732,-0.004261107284442,0.6079369339438058,0.0005982307217615,-0.4740859302537719,0.0794188762996318,-0.4653726884807732,0.1203872418217882,0.008180316943784,-0.0064897484796279,0.5740054324897474,0.5740054324897474,0.0011609015571129,-0.0
25,26.0,9.0,46.0,15.0,7.006,7,0.0,105.4,100769.0,286.42999999999995,708.5,-16.5,209.8,208.2,781.0,0.6,0.0,1.2256060456728688,245.886406602588,20.031192780900422,20,227419.3031206813,2.39,2.64,0.04,0.04,0.0,100769.0,1.453147925422529e-05,17.0,41.24631992904413,37.340418420611925,6.589348486186504,-0.2393179387332714,44.572417303869614,-0.3718822165644581,1.691864233324492,0.0004590608373657,0.1233981751563633,-0.0044816869200006,0.8347039117957717,-0.0049865806360265,0.1920443038677446,6.155561574075044e-06,0.8435227786797975,0.0206652328174014,0.8347039117957717,0.1233981751563633,0.0044816869200006,-0.0062038436733752,0.1572641619159545,0.1572641619159545,-0.0007505935730416,-0.0
27,28.0,9.0,47.0,59.0,12.001,12,0.0,105.38,100765.0,286.37,1081.5,8.1,280.2,260.0,1074.4,-7.2,0.0,1.2258141732986163,245.8397491286489,20.02759177833296,20,227454.112739243,2.32,2.59,0.04,0.04,0.0,100765.0,1.4526643433373123e-05,17.0,42.48318239702044,38.054433652929504,10.027523254565864,0.0643232583624376,59.134398377395655,-0.4270924879903821,-0.662280268368761,0.0541647412923161,0.1878202242990614,0.0012048048662244,1.1076150795237787,-0.0057279838434842,-0.0751900118310144,0.0007264346054615,1.122460240001885,-0.0465898128256293,1.1076150795237787,0.1878202242990615,-0.0012048048662244,-0.0054216835107785,-0.1281276995582511,-0.1281276995582511,-0.000416766313782,-0.0
24,25.0,9.0,45.0,43.0,14.001,14,0.0,105.14,100769.0,286.48999999999995,1322.1,-7.7,269.6,274.0,1288.6,-1.6,0.0,1.2253493652905156,245.27986232889623,20.008566712214023,20,227077.8334250409,2.31,2.55,0.04,0.04,0.0,100769.0,1.4536892460847084e-05,17.0,42.626560981469694,38.61464935968432,12.234680274223706,-0.1171349222673873,64.5715843312166,-0.227990330439493,-1.586436589639824,0.0173440984734764,0.2296844066949608,-0.0021990002616518,1.212216887082499,-0.0030646895667078,-0.1805224692322206,0.000233142684311,1.2317733230135106,-0.0704215075034176,1.212216887082499,0.2296844066949608,0.0021990002616518,-0.0036314300977571,-0.2452597010335896,-0.2452597010335896,-0.0006523675848371,-0.0
30,31.0,9.0,50.0,47.0,-4.994,-5,0.0,26.33,100764.0,286.15,201.5,-4.4,-121.0,-121.0,282.6,2.9,0.0,1.2267444385597976,61.71532013305927,10.03077391744034,10,114074.5450213573,0.58,0.59,0.04,0.04,0.0,100764.0,1.4506947410715915e-05,17.0,85.11042218843625,83.66787265981867,1.85536503171814,-0.0381609313640986,-7.872711717696775,-0.0521418437722555,1.3588643770743256,-0.0227427661584278,0.1384322131466713,-0.0028472575984567,-0.5873975675488862,-0.0027856423315364,0.6145448289293071,-0.0012150167229195,-0.5972184212582982,0.0867729065364281,-0.5873975675488862,0.1384322131466714,0.0028472575984567,-0.0036802980033434,0.5755272987442717,0.5755272987442717,-0.0008900291292853,-0.0
31,32.0,9.0,51.0,28.0,7.001,7,0.0,26.14,100762.0,286.11,187.9,-18.0,28.0,37.5,293.9,8.3,0.0,1.2268915929768571,61.27346601068028,9.9942020745658,10,113684.63772577335,0.57,0.59,0.04,0.04,0.0,100762.0,1.4503629067221687e-05,17.0,86.28783390804843,83.36282258913153,1.803087685855692,-0.169543499461593,10.947577964730025,-0.1142171528340782,0.4181871949702629,-0.0482280788752001,0.135501836396351,-0.0127411748781408,0.8227092503319713,-0.0061459756907338,0.1904884834052068,-0.0025951321060188,0.8330910174467295,0.0342142499282204,0.8227092503319713,0.135501836396351,0.0127411748781408,-0.0093482019670198,0.1522968886055142,0.1522968886055142,-0.0037152040408587,-0.0
29,30.0,9.0,49.0,52.0,12.005,12,0.0,26.4,100766.0,286.19,306.8,0.5,17.3,15.8,530.0,1.4,0.0,1.226597325277485,61.87810933612799,10.044596811539977,10,114205.62010101209,0.57,0.59,0.04,0.04,0.0,100766.0,1.4510265957942694e-05,17.0,86.72293144374203,83.78317105581856,2.90444333892389,0.0478036700472252,14.61023305882123,-0.1387315845783317,-0.2213507315497445,-0.000218887559669,0.2161357732177255,0.0035573368052448,1.0872286529884516,-0.007392141419933,-0.0998422517777302,-1.1663153715541572e-05,1.1084059710726792,-0.0147315862668706,1.0872286529884516,0.2161357732177255,-0.0035573368052448,-0.0062473278211528,-0.1607607610170037,-0.1607607610170037,-0.0013108338282702,-0.0
28,29.0,9.0,49.0,16.0,14.001,14,0.0,26.31,100765.0,286.23999999999995,354.6,5.7,7.9,7.8,657.5,-0.7,0.0,1.2263708943806766,61.66880901547622,10.0285203706257,10,113986.2843535326,0.55,0.58,0.04,0.04,0.0,100765.0,1.4514918576189636e-05,17.0,89.73264469063798,85.09130099974293,3.338028128119413,0.1059154478688369,16.636423591798337,-0.0607961747186137,-0.4037989588178048,0.0137889299972781,0.2492442866620106,0.0079085074293332,1.2422104822348834,-0.0032504437051619,-0.1827553396350199,0.0007372197497295,1.265608148040468,-0.0586993374873447,1.2422104822348834,0.2492442866620106,-0.0079085074293332,-0.0011694250171146,-0.2530055816648784,-0.2530055816648784,0.0004323887386899,-0.0
