,run,hr,min,sec,AoA,rounded_AoA,AoS,dPb,pBar,temp,B1,B2,B3,B4,B5,B6,rpmWT,rho,q,V,rounded_v,Re,rpsM1,rpsM2,iM1,iM2,dPtQ,pInf,nu,rounded_J,J_M1,J_M2,FX,FY,FZ,MX,MY,MZ,CFX,CFY,CFZ,CMX,CMY,CMZ,CN,CT,CL,CD,CYaw,CMroll,CMpitch,CMpitch25c,CMyaw
0,65.0,10.0,28.0,22.0,-4.994,-5,-0.005,417.93,100736.0,286.53999999999996,-570.8,21.2,-565.7,-607.8,-48.9,-39.1,0.0,1.2247343376561788,979.4995546479081,39.99412246757025,40,453605.09454468766,123.02,123.03,13.09,12.28,0.0,100736.0,1.4546167645736305e-05,1.6,1.5999143947038514,1.5997843520805313,-5.2436403316632685,-0.1473812917766228,-73.2131096576883,-0.8557165777158547,4.52482589150298,0.25130606726538696,-0.024650710051656168,-0.0006928494825791515,-0.3441798109710013,-0.0028804322074253187,0.12893418254138844,0.0008459227142762905,-0.34072736296511397,-0.0545184731345669,-0.3441798109710013,-0.0246507704203166,0.0006906982996769273,-0.0029903991514251744,0.13588205834038328,0.13588205834038328,0.001103029934516595
46,111.0,11.0,8.0,17.0,-3.994,-4,-0.005,416.8,100714.0,287.34,-672.7,21.9,-309.4,-355.9,-271.2,-40.0,0.0,1.221057755314085,976.8307810504319,39.999684223337354,40,451326.4478480881,123.03,123.03,11.57,11.69,0.0,100714.0,1.4621641071803442e-05,1.6,1.6000068250164863,1.6000068250164863,-6.174145620911252,-0.14715333296495342,-47.489248579530035,-0.9123339793150079,2.616469356556859,0.2585319620906456,-0.029104377392970344,-0.0006936678206519725,-0.22386012537281716,-0.0030794025814224434,0.0747595636079837,0.0008726234136756404,-0.22128926905831106,-0.04462600043701287,-0.22386012537281716,-0.029104437816085946,0.0006911279819526532,-0.0032061813189060906,0.08296271876699077,0.08296271876699077,0.0010938210856491332
33,98.0,10.0,59.0,43.0,-2.994,-3,-0.005,417.63,100719.0,286.79999999999995,-745.0,18.6,-59.3,-103.4,-462.3,-36.1,0.0,1.2234175522320185,978.7910191616756,40.00116429069415,40,452877.49037520576,123.02,123.02,11.21,11.14,0.0,100719.0,1.4572103157859283e-05,1.6,1.6001960939507849,1.6001960939507849,-6.83286695677161,-0.15147480647316286,-21.34712270956371,-0.8663237373094796,0.8091643576226524,0.23445018922033548,-0.03214502514932162,-0.0007126088498976168,-0.10042692192104344,-0.0029182479826183427,0.023073698305853225,0.0007897553330832022,-0.09861086115104173,-0.037346584200376946,-0.10042692192104345,-0.0321450872137759,0.0007098036645528037,-0.0030735913523592296,0.03213386906057136,0.03213386906057136,0.0009492152418786243
39,104.0,11.0,3.0,28.0,-1.994,-2,-0.005,417.25,100717.0,287.10999999999996,-790.5,14.9,182.0,139.0,-625.0,-32.6,0.0,1.2220723296049087,977.8935528363936,40.00482121523746,40,452040.86894458113,123.03,123.03,11.18,11.17,0.0,100717.0,1.4600407350574258e-05,1.6,1.600212307191154,1.600212307191154,-7.245478111601077,-0.16700338059463152,4.327991270804262,-0.8554827059979436,-0.9059754987313386,0.21285139234915038,-0.034117425118670094,-0.0007863836235843713,0.020379596186964798,-0.002884374232793587,-0.025858022618173104,0.0007176569055127143,0.021554366223497764,-0.03338766140620139,0.0203795961869648,-0.034117493613677566,0.0007834063135907064,-0.003079167265452259,-0.01624192507740064,-0.01624192507740064,0.000824361481204609
45,110.0,11.0,7.0,50.0,-0.994,-1,-0.005,417.22,100710.0,287.23999999999995,-804.6,-9.3,406.7,381.9,-754.9,-25.0,0.0,1.221434342561601,977.8227008009401,40.01381797858296,40,451747.42281802197,123.03,123.03,11.38,11.14,0.0,100710.0,1.4613177131717455e-05,1.6,1.6005721821010528,1.6005721821010528,-7.369627173657727,-0.45876937824050357,29.817723780229542,-0.861072122084442,-2.5157691117964625,0.16397996741584595,-0.034704531286123504,-0.0021604045720484953,0.14041553302870316,-0.0029034300601934906,-0.07180936829596733,0.0005529204284446995,0.14099644680358503,-0.032263421955647756,0.1404155330287032,-0.034704719684843,0.0021573760221446077,-0.0035022260550212963,-0.06202779313918534,-0.06202779313918534,0.0006135927992942062
38,103.0,11.0,3.0,0.0,0.006,0,-0.005,417.4,100718.0,287.02,-801.8,-30.3,628.5,615.4,-860.0,-13.6,0.0,1.2224676686868654,978.2478142630679,40.00559647049257,40,452306.1443035533,123.03,123.03,11.33,11.28,0.0,100718.0,1.4592127058522605e-05,1.6,1.600243317778447,1.600243317778447,-7.338889464410131,-0.6526559857254514,55.15760046091532,-0.8708610663800391,-3.9833121987703652,0.09051825137703884,-0.034544764907369206,-0.003072106168325451,0.25963142652810994,-0.0029351611087148036,-0.11364907392807343,0.000305083854736033,0.2596278075852062,-0.03457195325731404,0.25963142652810994,-0.0345450328676702,0.003069091557196759,-0.003801075278684043,-0.10391252939937938,-0.10391252939937938,0.0003046858053915759
47,112.0,11.0,8.0,47.0,1.001,1,-0.005,416.97,100715.0,287.42999999999995,-776.0,-23.9,840.8,823.5,-929.6,-14.8,0.0,1.220687538272233,977.2322704113608,40.01397000986698,40,451240.85909787146,123.04,123.03,11.95,12.08,0.0,100715.0,1.4629637492713454e-05,1.6,1.6004481774166561,1.6005782634263626,-7.097092725088626,-0.5646721649850697,79.22349936635081,-0.8438425366312394,-5.228730533994898,0.09937857560388494,-0.03344132377093297,-0.0026607211466951187,0.37329915152593085,-0.0028470531136879384,-0.14933750868845985,0.0003352948812422291,0.3726579673460653,-0.03995770312506915,0.37329915152593085,-0.03344155583531998,0.0026578028305374066,-0.0036022938859038935,-0.13991197231942512,-0.13991197231942512,0.0002723121527182441
34,99.0,11.0,0.0,31.0,2.001,2,-0.005,416.98,100717.0,286.96,-732.4,-24.0,1049.4,1030.1,-976.8,-13.7,0.0,1.2227111323977744,977.2558875158858,39.98132773290784,40,452195.31335087476,123.03,123.03,10.84,11.23,0.0,100717.0,1.4586849276845417e-05,1.6,1.5992725564706003,1.5992725564706003,-6.692140946262811,-0.551952715379091,103.51775814563233,-0.8620123203088368,-6.370491827339053,0.09307499855597651,-0.031532439041883825,-0.0026007245650456357,0.48776130459453043,-0.0029082861364653793,-0.18194289824364898,0.00031401955816002825,0.48636286014973534,-0.04854434301396421,0.4877613045945305,-0.0315326658778499,0.002597972830733977,-0.003650052271738285,-0.17305538670165732,-0.17305538670165732,0.00018637942078465023
42,107.0,11.0,5.0,38.0,3.005,3,-0.005,417.58,100713.0,287.12,-648.9,-8.5,1256.0,1224.2,-990.2,-20.0,0.0,1.2219812332763667,978.6729307237704,40.0222516015584,40,452191.86648658046,123.02,123.03,11.59,11.58,0.0,100713.0,1.4601891307299103e-05,1.6,1.6010396652086534,1.6009095311222346,-5.920766195267072,-0.38150206116407737,127.74965459770277,-0.8860212098196667,-7.474333067402993,0.13505179200705755,-0.027857434396382472,-0.0017949819821391525,0.6010670755688398,-0.0029849598752405174,-0.21315980369756848,0.0004549825396419611,0.5987802134180846,-0.0593289305737017,0.6010670755688398,-0.027857590932037043,0.0017925509555505774,-0.0035099323838178645,-0.20530810312346237,-0.20530810312346237,0.00027035537560394336
35,100.0,11.0,1.0,5.0,4.001,4,-0.005,417.24,100717.0,286.96,-563.8,24.6,1453.8,1405.3,-1004.8,-39.8,0.0,1.2227111323977744,977.8699354819877,39.99388667371316,40,452337.35701212473,123.02,123.03,11.84,11.4,0.0,100717.0,1.4586849276845417e-05,1.6,1.5999049620681824,1.5997749202115563,-5.13519123484428,-0.09663789502669501,150.61063733760705,-0.8588053391395398,-8.622402737081536,0.2649623915928391,-0.02418111422267505,-0.0004550584137983432,0.709210788470471,-0.0028956468678222624,-0.2461034212985116,0.0008933776775016515,0.7057951128056472,-0.07360657244853122,0.7092107884704709,-0.02418115384193819,0.000452948211768355,-0.003078871097305877,-0.23928790247782084,-0.23928790247782084,0.0006763755702082635
36,101.0,11.0,1.0,37.0,5.001,5,-0.005,417.44,100717.0,286.95,-443.5,38.1,1643.3,1586.7,-1000.6,-46.5,0.0,1.2227537429965687,978.3422843285324,40.002847772372945,40,452466.740320811,123.04,123.03,11.63,11.75,0.0,100717.0,1.458594557278281e-05,1.6,1.6000033186655316,1.600133368516679,-4.02641839592614,0.037104463153704303,173.44103744266639,-0.8528869364130426,-9.88007113279441,0.3093685993818208,-0.018950857169655735,0.00017463693844982692,0.816322598580035,-0.0028743033011964106,-0.28186405021145583,0.001042599140079969,0.8115629972328057,-0.09004011029774858,0.816322598580035,-0.01895084185754837,-0.00017629071205118807,-0.0029052134063781722,-0.27652269486618,-0.27652269486618,0.0007853736046456275
41,106.0,11.0,4.0,59.0,6.005,6,-0.005,417.39,100714.0,287.10999999999996,-286.7,29.3,1819.4,1763.1,-977.4,-38.7,0.0,1.2220359284314344,978.2241967698388,40.012179743833045,40,452110.5506531386,123.03,123.04,11.32,11.38,0.0,100714.0,1.4600842257558905e-05,1.6,1.600506651914209,1.6003765717246843,-2.5824444594427094,-0.006071943452071238,195.60777187548712,-0.8986687635822902,-11.256921798195522,0.2591212964245115,-0.012156074973819035,-2.8581834381869308e-05,0.920764329194226,-0.0030289576487301847,-0.321182363112762,0.0008733667671114464,0.9144401724780404,-0.10841536345737064,0.920764329194226,-0.01215607742176772,2.7521016612322052e-05,-0.0031117162149194282,-0.3177561372983989,-0.3177561372983989,0.0005430414288420336
1,66.0,10.0,29.0,19.0,7.001,7,-0.005,418.23,100737.0,286.75,-105.5,25.4,1975.1,1921.7,-944.6,-37.0,0.0,1.2238495582411162,980.2080984635145,40.023044640108,40,453346.70378556807,123.03,123.03,13.43,11.94,0.0,100737.0,1.4564983630753098e-05,1.6,1.600941253049957,1.600941253049957,-0.914488130923415,-0.046117820926039166,215.6642000541801,-0.9006091294095788,-12.757151823310618,0.24846790942896996,-0.004295963353216108,-0.0002166462985456058,1.0131192179584612,-0.0030293539151430744,-0.36325021407613883,0.0008357646060167279,1.0050418052063297,-0.12774965708563848,1.0131192179584612,-0.004295982242814365,0.00021627140419586051,-0.0031692428108943747,-0.3620393840532863,-0.3620393840532863,0.0004432447237463628
44,109.0,11.0,7.0,2.0,8.005,8,-0.005,417.48,100714.0,287.16999999999996,156.5,12.4,2090.1,2038.6,-872.6,-33.1,0.0,1.2217806017757744,978.4367545420747,40.020707710626496,40,452038.9630383235,123.03,123.04,11.21,11.37,0.0,100714.0,1.4606266967652223e-05,1.6,1.6008477747340006,1.6007176668199292,1.4969171382486666,-0.20381656591154396,231.63046494152616,-1.0464949229675724,-14.64250620486805,0.22318684971894198,0.007044753205755133,-0.0009591963171530152,1.0900933784193862,-0.0035264385697490424,-0.4176890590009297,0.0007520865107283933,1.0804524700768956,-0.14482976947525794,1.0900933784193862,0.00704466947326126,0.0009598110841920404,-0.003864529868703339,-0.41967464360297924,-0.41967464360297924,0.0002065855541214575
48,113.0,11.0,9.0,27.0,9.001,9,-0.005,416.89,100713.0,287.37,455.9,10.6,2176.0,2121.5,-795.2,-21.9,0.0,1.2209181602056944,977.0433339083369,40.006322728041695,40,451313.10824102734,123.02,123.03,12.08,11.74,0.0,100713.0,1.4624499985072005e-05,1.6,1.6004024507266639,1.600272368433668,4.252503540645899,-0.09281906664354872,243.8626005925475,-0.9926754005427355,-16.991043165149858,0.150968942553896,0.020041565341044794,-0.00043744570022131654,1.149296690125817,-0.0033498502218100973,-0.48537416711009124,0.0005094548987756775,1.1382793396652626,-0.1600146592243698,1.1492966901258168,0.020041527090393373,0.000439194655065701,-0.003510081008807647,-0.49102294179103245,-0.49102294179103245,-4.5976880464747966e-05
37,102.0,11.0,2.0,7.0,10.001,10,-0.005,417.19,100717.0,286.95,806.4,25.4,2252.2,2204.1,-698.0,-27.4,0.0,1.2227537429965687,977.7518488487801,39.990774970431566,40,452330.18650914147,123.04,123.04,11.04,11.01,0.0,100717.0,1.458594557278281e-05,1.6,1.5995204399644523,1.5995204399644523,7.477909149225643,0.07729168946718235,255.97298883264452,-0.7259436540956395,-19.69044892522402,0.18729459154531858,0.035216996953858555,0.0003640029770629415,1.2054973907944304,-0.0024479707423510125,-0.5620790689664517,0.0006315802579398527,1.1932954956270796,-0.17467128041767582,1.2054973907944304,0.03521702858501434,-0.0003609297129332734,-0.002419420408046475,-0.5720050840928415,-0.5720050840928415,0.00020181369028830326
40,105.0,11.0,4.0,22.0,11.001,11,-0.005,417.05,100719.0,287.16999999999996,1171.5,27.7,2337.1,2295.4,-555.1,-21.4,0.0,1.2218412577224043,977.4212075066957,39.99894013733059,40,451815.5250487242,123.03,123.03,11.57,11.07,0.0,100719.0,1.4605541867771978e-05,1.6,1.599977061214288,1.599977061214288,10.836817844260736,0.18952675472999198,270.27813989189474,-0.5194745010840616,-21.994639529809643,0.1485857468529103,0.051052944661134095,0.0008928727104293855,1.2732976707108676,-0.0017523240936884999,-0.6280663589922009,0.0005012187963907811,1.259641601357886,-0.19286367601192922,1.2732976707108674,0.051053022384581745,-0.0008884174971493568,-0.0015687344665958399,-0.6424557829858795,-0.6424557829858795,0.00019265280205605333
2,67.0,10.0,30.0,3.0,12.001,12,-0.005,417.88,100735.0,286.75,1599.2,42.8,2427.5,2377.1,-321.5,-20.5,0.0,1.2238252603255888,979.3814648217739,40.00656201139907,40,453151.0058192181,123.04,123.04,13.48,12.95,0.0,100735.0,1.4565272804995035e-05,1.6,1.6001518779581583,1.6001518779581583,14.770616318754142,0.442913292686934,286.5620594895428,-0.4077796419430539,-23.727882703838063,0.14294917655254782,0.069446045030679,0.002082416590130311,1.3473101770389402,-0.0013727947676151376,-0.6762037071459653,0.0004812400164734926,1.3323031580874378,-0.21221630774599476,1.34731017703894,0.06944622649137731,-0.0020763562715173807,-0.0008687473448940856,-0.6957772810752137,-0.6957772810752137,0.0002900844606149827
43,108.0,11.0,6.0,24.0,13.001,13,-0.005,417.49,100714.0,287.16999999999996,2180.3,-12.5,2438.6,2393.4,-28.3,19.6,0.0,1.2217806017757744,978.4603721185974,40.02119071906764,40,452044.4186798492,123.03,123.03,11.21,11.52,0.0,100714.0,1.4606266967652223e-05,1.6,1.6008670953065844,1.6008670953065844,20.11427362419344,0.05663611558675563,295.43349888468845,-0.7404652375222658,-26.207512083091025,-0.11910165818231884,0.09465899593934363,0.0002665330071327332,1.3903280274379377,-0.002495131211736923,-0.7475719446088163,-0.00040133452543258654,1.3759838020474973,-0.2205468791314564,1.3903280274379375,0.09465901883830156,-0.0002582724503994679,-0.0022676864905440417,-0.7742518635915122,-0.7742518635915122,-0.0009012038028829343
3,68.0,10.0,30.0,52.0,14.001,14,-0.005,417.6,100737.0,286.81,2663.2,-43.0,2491.8,2484.1,266.2,25.6,0.0,1.2235935316956874,978.720166071168,39.99683993518305,40,452881.3834010831,123.04,123.04,14.35,13.78,0.0,100737.0,1.4570402579740448e-05,1.6,1.599763021787256,1.599763021787256,24.551648228252347,-0.3544954606866998,311.49593279611923,-0.5700839515518955,-27.78941665656741,-0.15958057237644854,0.11551088126768766,-0.0016678343827928987,1.46552970187865,-0.0019204908133749379,-0.7924855180635458,-0.0005375927920928066,1.4499375858059413,-0.24248931532544016,1.4655297018786497,0.11551073528184826,0.001677914602429469,-0.002189489928559403,-0.8250426028208837,-0.8250426028208837,-0.0010513443511964361
6,71.0,10.0,33.0,29.0,-4.994,-5,-0.005,417.19,100732.0,287.01,255.9,19.3,-703.1,-744.8,619.4,-38.0,0.0,1.2226801932247882,977.7518488487801,39.991977765797316,40,452243.03174100263,109.36,109.37,8.42,7.31,0.0,100732.0,1.4589195310959975e-05,1.8,1.7996608833372207,1.7994963353914093,2.3620201004911645,-0.16101821445225278,-73.61437648900962,-0.884708840705468,5.186644846757673,0.24229864569192472,0.011123865377872886,-0.0007583106259679463,-0.3466847779024042,-0.0029833463593593756,0.14805678212804027,0.0008170606523229731,-0.3463370482170385,-0.019097765379570995,-0.3466847779024042,0.011123799160430554,0.0007592813634612438,-0.0031138154826332947,0.1449214876522121,0.1449214876522121,0.001085021005165301
4,69.0,10.0,31.0,43.0,7.005,7,-0.005,417.58,100734.0,286.87,730.7,29.4,1814.8,1756.8,-236.2,-38.4,0.0,1.223301180620922,978.6729307237704,40.0006536813293,40,452742.67270186334,109.36,109.37,8.2,7.37,0.0,100734.0,1.4576256371174228e-05,1.8,1.8000513042836785,1.799886720640606,6.778721652055665,0.0037317359783313186,213.13098001326765,-0.945762417069844,-11.678405066121528,0.2558654447368731,0.031894148068949385,1.7557962394138352e-05,1.0027895204344393,-0.0031862249291284505,-0.3330553387099862,0.0008619975205284116,0.9991938922623272,-0.09064008296464378,1.0027895204344393,0.03189414947972674,-1.4774672851206456e-05,-0.0032626553041665905,-0.34204479901492063,-0.34204479901492063,0.00045766289474542154
7,72.0,10.0,34.0,31.0,12.001,12,-0.005,417.15,100732.0,287.08,2319.8,45.1,2247.6,2197.8,355.4,-20.0,0.0,1.2223820616463927,977.6573797088016,39.99492209973242,40,452080.2919301049,109.36,109.36,8.78,7.57,0.0,100732.0,1.4595521616434377e-05,1.8,1.7997933799754595,1.7997933799754595,21.400499317736156,0.48893823188610874,281.1671482160748,-0.37287218352896884,-21.940779480319804,0.13820250665881656,0.10079477151659505,0.002302862967680589,1.3242765059656483,-0.0012574920807538177,-0.6263770120520988,0.00046608077872423745,1.316291213487605,-0.17676337718259477,1.324276505965648,0.10079497209550177,-0.0022940669557643015,-0.0006920372001691224,-0.6547863175941236,-0.6547863175941236,0.0003119996653389111
5,70.0,10.0,32.0,19.0,14.001,14,-0.005,417.44,100737.0,286.89,3324.9,-46.4,2316.9,2315.5,908.1,25.2,0.0,1.2232523295536273,978.3422843285324,39.99469454248978,40,452632.6004600707,109.36,109.36,8.97,8.43,0.0,100737.0,1.4577629017910122e-05,1.8,1.79978313977502,1.79978313977502,30.639669795238035,-0.41061247308432297,306.20405552268517,-0.5492470166515524,-25.88612502248359,-0.15860015495358917,0.1442095552221946,-0.0019326005308770836,1.4411888557957468,-0.0018510103106671235,-0.7384934728758056,-0.0005344963435254141,1.433263193267628,-0.20875423998452944,1.4411888557957466,0.14420938602187358,0.0019451851812596328,-0.002195230862757538,-0.7791393640737663,-0.7791393640737663,-0.0010497288483649614
10,75.0,10.0,37.0,17.0,-4.994,-5,-0.005,417.16,100734.0,287.16999999999996,2032.6,27.2,-1010.1,-1060.6,2123.2,-40.3,0.0,1.2220232255622938,977.6809969799141,40.00127688927166,40,451909.2127235226,56.24,56.24,-1.02,-0.88,0.0,100734.0,1.4603367000021104e-05,3.5,3.500296543468765,3.500296543468765,18.707621356229843,-0.05646521885576489,-74.84578220133517,-0.9647543193904978,7.481995081768623,0.25347344650553066,0.08810938670857447,-0.0002659405869410603,-0.3525095917812716,-0.0032535052605988496,0.21359480493639169,0.0008548053893646943,-0.358841449080036,0.057088446695454896,-0.3525095917812716,0.08810936316538455,0.00027362958041856223,-0.0032414139405080823,0.188760912756655,0.188760912756655,0.001133730083450521
11,76.0,10.0,37.0,57.0,0.001,0,-0.005,417.45,100730.0,287.27,1852.9,-4.8,108.6,80.4,1464.7,-25.4,0.0,1.2215493258264662,978.3659018680357,40.02304689553574,40,451857.4535036776,56.24,56.24,-1.01,-0.91,0.0,100730.0,1.461298832318272e-05,3.5,3.502201519599612,3.502201519599612,17.084723258737153,-0.3805919514068468,47.59895716688815,-0.9045474199238781,0.43899538235048396,0.16170716913716265,0.08040951105483289,-0.0017912618343629734,0.2240252191707037,-0.0030483300448214,0.012523597031415819,0.0005449540966965687,0.22402662254730046,0.08040560106490399,0.2240252191707037,0.0804093544315725,0.0017982788811225757,-0.003553212020558105,-0.010140062339700155,-0.010140062339700155,0.0005448920813647903
8,73.0,10.0,35.0,13.0,7.005,7,-0.005,417.88,100735.0,287.03,2558.6,27.9,1408.4,1353.4,1427.0,-39.3,0.0,1.2226314092546517,979.3814648217739,40.02608965596751,40,452586.19137836935,56.24,56.24,-1.0,-1.0,0.0,100735.0,1.4590568185892574e-05,3.5,3.5024677751956874,3.5024677751956874,23.595986372041658,-0.02351262715705582,204.34329807982107,-0.9814500877835458,-7.836599193124325,0.2576144266883935,0.11093971279015039,-0.00011054778819657211,0.9607475797845157,-0.0033040627991252755,-0.22332955249102762,0.0008672618753963869,0.9671058507870631,-0.0070572876656888744,0.9607475797845157,0.11093970272060887,0.00012022910406037438,-0.0034160930602565994,-0.25459823984432906,-0.25459823984432906,0.00044417530522320874
9,74.0,10.0,35.0,57.0,12.001,12,-0.005,416.97,100733.0,287.04999999999995,4146.0,62.4,1772.0,1713.8,2134.1,-28.0,0.0,1.222521950778907,977.2322704113608,39.98393795894684,40,452044.59604199615,56.24,56.23,-0.98,-0.92,0.0,100733.0,1.4592665350816326e-05,3.5,3.4987793069552557,3.499401533401451,38.20253036194165,0.6745935541775666,266.0253781438986,-0.3746610011014932,-16.592710285778928,0.18651507689091074,0.18000936949666727,0.0031786679888354853,1.2535049415863304,-0.00126407442556974,-0.47390356040673826,0.0006292860425499841,1.263537427756571,-0.08456465187207579,1.2535049415863304,0.18000964620235319,-0.0031629591958411735,-0.0004909576269599709,-0.524639735522886,-0.524639735522886,0.0005134481371808917
12,77.0,10.0,39.0,12.0,14.001,14,-0.005,416.68,100733.0,287.22999999999996,5046.7,61.5,1845.7,1776.9,2647.4,-24.4,0.0,1.2217558262405919,976.5473784060043,39.982454132172194,40,451524.3633567171,56.24,56.22,-0.6,-0.75,0.0,100733.0,1.4608936411420156e-05,3.5,3.4986494652568325,3.4998940933127765,46.48132868432876,0.7071790559480626,287.0081506668046,-0.524714152301592,-20.038983464979236,0.16224002243952923,0.2191724672931925,0.0033345470729296083,1.3533237171877182,-0.0017715826363019736,-0.572733794371462,0.0005477679712017947,1.3661448350677048,-0.11476037443299994,1.3533237171877182,0.21917275745277268,-0.0033154206543369413,-0.0009395475213866359,-0.6345082048497536,-0.6345082048497536,0.0003041815800615298
14,79.0,10.0,41.0,10.0,-4.994,-5,-0.005,105.07,100732.0,286.76,-21.1,-15.4,-166.3,-159.8,95.1,-11.4,0.0,1.223746137039498,245.11656301645405,20.01500302515628,20,226687.46980806312,61.52,61.53,1.57,1.27,0.0,100732.0,1.456660973851601e-05,1.6,1.601089574701099,1.6008293618659453,-0.19140856398099643,-0.39025687667830355,-17.648450937205453,-0.31390322207094873,1.082760941683989,0.07001583919322978,-0.0035957499885847922,-0.007331261102823314,-0.3315390698103571,-0.004222358172936608,0.12329071291888109,0.0009417932982724528,-0.32996747253153885,-0.0324430470185121,-0.3315390698103571,-0.0035963897481152145,0.007330947286526443,-0.0061828384070172085,0.12430418572646237,0.12430418572646237,0.0014764429501486222
51,116.0,11.0,16.0,57.0,-3.994,-4,-0.005,105.11,100700.0,286.59,-44.9,-33.8,-107.0,-90.0,31.2,-8.2,0.0,1.224083057402585,245.20987685374902,20.01605722607741,20,226866.47130921602,61.5,61.51,2.31,2.04,0.0,100700.0,1.4555883061664828e-05,1.6,1.601694611906841,1.6014342160993453,-0.4015657432818954,-0.6428858640884066,-11.29818794502768,-0.4065091381717705,0.4676812527912319,0.049805610153159485,-0.007540835706798825,-0.012072485664970916,-0.212163961949764,-0.0054659330659892515,0.05323318402044478,0.0006696876056274333,-0.2111234555195061,-0.022300167776969197,-0.212163961949764,-0.007541889201202882,0.012071827556945955,-0.00880041517275708,0.0553585909479399,0.0553585909479399,0.0012810277627693341
65,130.0,11.0,25.0,6.0,-2.994,-3,-0.005,104.9,100696.0,286.34999999999997,-68.0,-37.3,-44.1,-24.5,-26.9,-5.8,0.0,1.2250603407244698,244.719980859943,19.988075102140613,20,226878.05168453814,61.5,61.5,1.99,1.95,0.0,100696.0,1.4534792245856805e-05,1.6,1.5994554687712543,1.5994554687712543,-0.6058561318415243,-0.6677938700756096,-4.854672355688807,-0.3890931306031798,-0.09613373377301904,0.03519831787251699,-0.011399895198973635,-0.012565326540873013,-0.09134636619421561,-0.005242230211832963,-0.01096419678099949,0.00047422498842620474,-0.09062624705268812,-0.016155481193095247,-0.0913463661942156,-0.011400991687163294,0.012564331664501037,-0.00874704556301864,-0.007751102480752153,-0.007751102480752153,0.0009304479341996433
58,123.0,11.0,21.0,46.0,-1.994,-2,-0.005,104.99,100699.0,286.42999999999995,-76.1,-21.8,20.9,26.6,-67.0,-5.5,0.0,1.224754668531118,244.92993578609742,19.99914275198593,20,226897.70497850003,61.5,61.5,2.07,2.46,0.0,100699.0,1.4541580680731965e-05,1.6,1.6003411074823897,1.6003411074823897,-0.6727169196180478,-0.41557923534867774,1.2701855569548712,-0.34902359903616526,-0.5885530800967771,0.03470556953927793,-0.012647109050399407,-0.00781290875145594,0.02387954693063378,-0.004698344735622944,-0.06706782297469037,0.0004671854006203363,0.024305141439589034,-0.01180856589711924,0.023879546930633776,-0.012647790807151272,0.007811805053239048,-0.006880002238487443,-0.06350319774830201,-0.06350319774830201,0.0007062910896066762
52,117.0,11.0,17.0,36.0,-0.999,-1,-0.005,105.11,100702.0,286.60999999999996,-83.0,-42.1,69.5,95.0,-102.5,-4.5,0.0,1.2240219491583837,245.20987685374902,20.01655686207169,20,226848.49078501336,61.5,61.5,2.29,2.3,0.0,100702.0,1.4557400163104433e-05,1.6,1.6017345930215485,1.6017345930215485,-0.7288632172706464,-0.7255372317560409,7.560377879150266,-0.3565925607430322,-1.0486372859808433,0.02854709635297061,-0.013687018542088269,-0.013624561246493644,0.1419731847693161,-0.004794753391318655,-0.1193597162215876,0.0003838450436697193,0.1421902373526219,-0.011209641908593287,0.1419731847693161,-0.013688207457234912,0.013623366776924972,-0.008626871594568652,-0.11550198941819358,-0.11550198941819358,0.0005341958240182732
59,124.0,11.0,22.0,8.0,0.001,0,-0.005,104.87,100699.0,286.42999999999995,-80.6,-25.9,129.8,141.7,-124.1,-5.0,0.0,1.224754668531118,244.64999605114565,19.98771059421728,20,226768.0029011247,61.5,61.49,1.98,2.42,0.0,100699.0,1.4541580680731965e-05,1.6,1.599426300670354,1.599686412282107,-0.7001882986591593,-0.47199275034828725,13.572113236606656,-0.31329184788241576,-1.4342651136162086,0.03316852831139939,-0.013178634603225294,-0.008883638878460208,0.2554483150908863,-0.004222171178297901,-0.16362688511507958,0.0004470055802904557,0.2554480850414146,-0.013183093015384855,0.2554483150908863,-0.013179409796783725,0.00888248879181156,-0.006726058966275834,-0.15991244783389494,-0.15991244783389494,0.000446888188347734
50,115.0,11.0,15.0,58.0,1.006,1,-0.005,104.82,100705.0,286.60999999999996,-73.2,-14.0,189.0,187.1,-136.0,-2.5,0.0,1.2240584138348296,244.5333548882473,19.988627706458523,20,226538.71705983143,61.49,61.5,2.37,2.06,0.0,100705.0,1.4556966498435459e-05,1.6,1.5997598119835856,1.5994996884369217,-0.6260947488386246,-0.25007058885099304,19.671003713487387,-0.30779237382761426,-1.7574049363394495,0.018187541957214823,-0.011789699510719993,-0.004708963147336545,0.37041553740302874,-0.004150034474821333,-0.20058764374786578,0.0002452267585322779,0.37015144926312193,-0.018291308661168768,0.3704155374030288,-0.011790110400384007,0.004707934284036035,-0.0054807309337108236,-0.1972646819452929,-0.1972646819452929,0.0001489631630951851
64,129.0,11.0,24.0,34.0,2.006,2,-0.005,105.18,100696.0,286.37,-55.9,-15.2,238.5,237.1,-133.8,-1.3,0.0,1.224974782855927,245.37317642532733,20.015431909266375,20,227160.35537851072,61.51,61.5,1.92,2.05,0.0,100696.0,1.453659753678242e-05,1.6,1.6013841860796576,1.6016445737521905,-0.46143925413040937,-0.2529779701407966,25.80085004171887,-0.30892231921025204,-2.007748585441894,0.011168708691084998,-0.008659408604004108,-0.004747406276453459,0.48418096389072784,-0.00415101360867782,-0.22837716881323827,0.00015007482103129795,0.48358112649728374,-0.025602446116405983,0.48418096389072784,-0.00865982286038327,0.004746650582420558,-0.005490973508772846,-0.22593648879439535,-0.22593648879439535,-4.222402372034773e-05
55,120.0,11.0,19.0,55.0,3.006,3,-0.005,104.96,100701.0,286.46999999999997,-36.7,-15.4,285.6,283.1,-124.9,-0.8,0.0,1.2246079768724318,244.85995072741883,19.997482928105313,20,226827.04993098372,61.49,61.49,2.32,2.21,0.0,100701.0,1.4544903031109626e-05,1.6,1.600468526354816,1.600468526354816,-0.2799103880563536,-0.2485602286233729,31.699288804593117,-0.3293425918606908,-2.203318253616481,0.00867855599279903,-0.005263832239424786,-0.004674279343298589,0.5961184203812436,-0.00443467805529173,-0.251148110888973,0.00011685886600772821,0.595022152284132,-0.03651735667916135,0.5961184203812436,-0.005264240127204569,0.004673819969481583,-0.005750351042705889,-0.24966448414760814,-0.24966448414760814,-0.0001848533950983536
63,128.0,11.0,24.0,8.0,4.001,4,-0.005,105.03,100697.0,286.39,-15.1,-20.6,328.0,330.7,-111.9,3.2,0.0,1.224901401166558,245.02324932723684,20.001753904839784,20,226979.18478851748,61.51,61.49,2.23,2.24,0.0,100697.0,1.4538258533876789e-05,1.6,1.600289843470157,1.60081034756626,-0.07694468543021253,-0.28074917489900303,37.505736049930995,-0.2874666162983487,-2.3819140197997273,-0.016660318701144948,-0.0014460127247222499,-0.0052760873228526696,0.7048410332051237,-0.0038682281202138333,-0.2713246346636208,-0.00022418573022965483,0.703022323711514,-0.05062198539892987,0.7048410332051236,-0.001446473144692691,0.005275961114347618,-0.0053266148996231,-0.27091707168494455,-0.27091707168494455,-0.0005952979649217647
62,127.0,11.0,23.0,46.0,4.005,4,-0.005,105.23,100696.0,286.40999999999997,-11.7,-20.1,330.4,330.9,-110.3,2.5,0.0,1.2248037029658596,245.48981925410047,20.02158685857174,20,227173.78043175768,61.5,61.5,2.2,2.73,0.0,100696.0,1.4540208370285818e-05,1.6,1.6021370957822594,1.6021370957822594,-0.04567796988344908,-0.2814047438674832,37.704609619897646,-0.32365669231116156,-2.3940860222084144,-0.012117987986743442,-0.0008567894077647019,-0.005278356381765562,0.70723174056684,-0.004346934145857119,-0.2721928456890345,-0.00016275299417575138,0.7054448105083444,-0.05025025651812533,0.70723174056684,-0.0008572500279914881,0.0052782815926863584,-0.005809038851348589,-0.27195135705123996,-0.27195135705123996,-0.0005680793086753356
61,126.0,11.0,23.0,27.0,5.005,5,-0.005,105.22,100697.0,286.42999999999995,16.4,-19.9,374.3,374.4,-92.6,2.2,0.0,1.224730343469925,245.4664906698361,20.021235116965936,20,227143.8396352578,61.5,61.5,2.02,2.6,0.0,100697.0,1.4541869499280299e-05,1.6,1.6021089492482825,1.6021089492482825,0.21642164760541674,-0.2804600095220265,43.464381038449815,-0.33821494160960053,-2.5871034685128547,-0.009482468736356844,0.004059843254680748,-0.005261135798862661,0.8153462286709242,-0.004542893249472559,-0.2941656955475658,-0.00012736824400991304,0.8125915772725982,-0.0670886240787713,0.8153462286709243,0.004059384118512165,0.005261490066988837,-0.0059916723550994325,-0.29530997441976864,-0.29530997441976864,-0.0006496121349564856
56,121.0,11.0,20.0,29.0,6.001,6,-0.005,104.97,100699.0,286.46999999999997,48.1,-23.3,410.1,413.9,-69.5,3.8,0.0,1.2245836552077636,244.88327907105685,19.998634102591048,20,226835.6022293942,61.5,61.5,2.07,2.51,0.0,100699.0,1.4545191909907454e-05,1.6,1.6003004051109921,1.6003004051109921,0.5110014885664825,-0.31348823636642364,48.612439592395205,-0.3232274496229194,-2.7568224193681403,-0.01929413781872985,0.00960868186199111,-0.005894716156643331,0.9140902267994377,-0.004351921561508641,-0.3142100711740639,-0.00025977550632536327,0.9100856246540893,-0.0860082862016722,0.9140902267994379,0.009608167414377596,0.005895554649873193,-0.0059532535509400535,-0.31691830667840726,-0.31691830667840726,-0.0008807397346630903
16,81.0,10.0,42.0,52.0,7.006,7,-0.005,105.26,100726.0,286.65,96.0,-9.2,450.9,445.8,-36.5,-4.8,0.0,1.2241428221720356,245.55980506242267,20.02984518722937,20,226996.85536219808,61.52,61.54,1.47,1.44,0.0,100726.0,1.4557543339193273e-05,1.6,1.6022768656013993,1.6017561386382528,0.9538654254621775,-0.19308375100253822,53.84225722265766,-0.3512572447604008,-2.9662795315540302,0.03742990660276506,0.017886715877178678,-0.0036206723742072127,1.0096404916458903,-0.0047162841843870875,-0.3371516086475398,0.0005025663645859352,1.0042835953071403,-0.1053960016926168,1.0096404916458903,0.017886399845801208,0.0036222332708408605,-0.005755246765526071,-0.34219303261083034,-0.34219303261083034,-0.00020317244172622726
53,118.0,11.0,18.0,17.0,8.001,8,-0.005,104.82,100702.0,286.59999999999997,146.9,-0.7,478.5,466.9,-3.6,-7.4,0.0,1.22406465753065,244.5333548882473,19.988576727505063,20,226545.44505185477,61.5,61.5,2.36,2.28,0.0,100702.0,1.4556497057773672e-05,1.6,1.5994956090763286,1.5994956090763286,1.4240799894098082,-0.08798213398512772,57.6002339895941,-0.358901656666911,-3.31624339473118,0.05515474722933775,0.026816189060065766,-0.001656750713722916,1.084643261653532,-0.00483915254207166,-0.37851119846579595,0.0007436639823311708,1.077817508860643,-0.12441676189145556,1.084643261653532,0.026816044379183272,0.001659090861371184,-0.005357971910985887,-0.38606942095112284,-0.38606942095112284,-9.353280689739494e-06
49,114.0,11.0,15.0,15.0,9.001,9,-0.005,105.01,100707.0,286.69,218.0,9.0,498.7,483.7,39.7,-11.4,0.0,1.2237411469408699,244.97659253815743,20.009328357824764,20,226665.32330188205,61.5,61.49,2.51,2.18,0.0,100707.0,1.4563902641431796e-05,1.6,1.6011561646041197,1.601416557540305,2.0800345144527856,0.019126030239331293,60.90321705242908,-0.3168686888432144,-3.8975671396369327,0.08197719507646026,0.039097296952779546,0.00035950176720586836,1.1447652170833513,-0.004264682389275313,-0.44405775261599834,0.001103317280861888,1.1367849706192041,-0.14048463064407216,1.1447652170833513,0.03909732817635556,-0.00035608988303903786,-0.004284702431304623,-0.45507744181501514,-0.45507744181501514,0.0004193816076671817
60,125.0,11.0,22.0,53.0,10.001,10,-0.005,105.06,100699.0,286.45,286.3,-1.2,515.5,507.9,81.1,-4.2,0.0,1.2246691558993472,245.09323458026748,20.00650696039243,20,226953.07476061655,61.5,61.5,2.43,2.68,0.0,100699.0,1.4543386253385168e-05,1.6,1.6009303950125175,1.6009303950125175,2.7098911231721754,-0.053273756566897444,64.4101801674174,-0.28924254388554416,-4.589012838110813,0.03562617685765603,0.05091213388514442,-0.0010008817711183546,1.2101075531075782,-0.003891014100925614,-0.5225867454964911,0.00047925853041198304,1.200561306938964,-0.1600152609776821,1.2101075531075782,0.05091204634787386,0.0010053246891292,-0.004192934555916469,-0.5369364815549871,-0.5369364815549871,-0.00025619144946688777
57,122.0,11.0,20.0,58.0,11.001,11,-0.005,104.51,100704.0,286.46999999999997,406.7,-8.2,520.6,508.5,165.2,3.5,0.0,1.224644459369434,243.81018484248943,19.954272957935963,20,226343.67158496458,61.51,61.5,2.22,2.28,0.0,100704.0,1.4544469734427338e-05,1.6,1.596491012755109,1.596750604789703,3.8186023669134235,-0.06857629278187918,66.80211585916877,-0.3940373433644268,-5.2863339100908,-0.014089871930761699,0.07211961087340495,-0.0012951585620493452,1.2616507660046172,-0.005328653664283307,-0.605164145431593,-0.00019054043723895937,1.2522287922266013,-0.16996160022568535,1.261650766004617,0.07211949757488774,0.0013014521804347492,-0.005552709625376696,-0.6254912718295845,-0.6254912718295845,-0.001246641115738719
13,78.0,10.0,40.0,15.0,12.005,12,-0.005,105.23,100731.0,286.90999999999997,514.3,-9.5,535.7,522.5,252.9,2.4,0.0,1.2230942056526706,245.48981925410047,20.035573883269578,20,226707.31832457928,61.51,61.52,1.55,1.6,0.0,100731.0,1.4580304254882532e-05,1.6,1.6029956945792678,1.6027351296094077,4.808664574256249,-0.10179313074735186,70.71872828283335,-0.45921719026189883,-5.809696437311093,-0.006822234500140268,0.09019693482938604,-0.0019093509722536944,1.3264831488335516,-0.006167605775303702,-0.6605267276079058,-9.162734713729724e-05,1.3162329334880736,-0.18768030262489244,1.3264831488335516,0.09019676786363658,0.0019172221324133321,-0.006540045115167873,-0.685949001421982,-0.685949001421982,-0.001449933494559533
54,119.0,11.0,18.0,56.0,13.001,13,-0.005,104.76,100700.0,286.53,673.3,-12.4,518.2,522.3,373.2,1.0,0.0,1.224339383034959,244.39338579817968,19.98061318215453,20,226549.06952510693,61.5,61.51,2.49,2.83,0.0,100700.0,1.4550464888023498e-05,1.6,1.5988583623131147,1.5985984276094385,6.269452809676694,-0.16424801640587958,72.56878910407613,-0.25271768331178107,-6.440344758541534,0.0021062274627939295,0.11812476861022336,-0.003094649488817704,1.367291800651602,-0.003409401431590249,-0.7355125869264776,2.8415007738279477e-05,1.358817132068709,-0.19250020957102065,1.3672918006516017,0.11812449810132403,0.0031049578077230926,-0.0041782751404520245,-0.7688064035901356,-0.7688064035901356,-0.0009122918322788695
15,80.0,10.0,42.0,9.0,14.001,14,-0.005,104.59,100727.0,286.72999999999996,790.1,-12.8,524.5,530.0,487.6,3.1,0.0,1.2238134261823068,243.9968085189798,19.968684900880806,20,226193.72246942628,61.5,61.52,1.43,1.3,0.0,100727.0,1.4564623288725763e-05,1.6,1.5979038554574616,1.5973843808620594,7.339622937021956,-0.1441741706591982,76.22406692381772,-0.20991483500608543,-6.808749137442582,-0.011588167565281589,0.13851295181682452,-0.002720846850730857,1.4384963096462657,-0.0028365532552903686,-0.7788496491353856,-0.00015658947796232144,1.4292724090499616,-0.2136301744029956,1.4384963096462655,0.13851271385072667,0.002732934375684598,-0.003458494394942174,-0.817889935754261,-0.817889935754261,-0.0009886815289698577
19,84.0,10.0,45.0,47.0,-4.994,-5,-0.005,26.19,100727.0,286.45,33.8,0.6,-64.2,-66.3,77.5,-0.6,0.0,1.2250096829787143,61.38974308738623,10.011361532529197,10,113600.09327677333,30.76,30.76,0.34,0.33,0.0,100727.0,1.4539343496079829e-05,1.6,1.6017071352074859,1.6017071352074859,0.31243808739302714,-0.0024547618488738815,-6.074943478225712,-0.04152339006837142,0.3254004567244643,0.0005383612564945569,0.023435214655292597,-0.00018412566577907628,-0.45566661100411887,-0.0022301236473375855,0.14794244211505325,2.8914117246737016e-05,-0.45597688706443645,-0.016320175640746785,-0.4556666110041189,0.02343519849806241,0.0001861707733586144,-0.0022708400380440684,0.14133715730148996,0.14133715730148996,0.00022648420622740917
18,83.0,10.0,45.0,0.0,7.006,7,-0.005,26.01,100727.0,286.46999999999997,48.0,-21.2,84.7,91.5,103.2,10.3,0.0,1.2249241585131174,60.97114669406343,9.97751936271449,10,113202.02743534732,30.76,30.76,0.33,0.34,0.0,100727.0,1.4541148650667354e-05,1.6,1.5962927622785898,1.5962927622785898,0.5159122972106202,-0.1968093292084648,13.050494428061278,-0.17981875065492445,-0.6975018723537434,-0.06086313102977104,0.03896299187640564,-0.014863534629064479,0.9856061023023844,-0.00972394667543205,-0.31929451342858556,-0.003291257660715594,0.9829994040723613,-0.08154554080415227,0.9856061023023843,0.0389616946399584,0.014866934734937375,-0.013407947428299632,-0.3302763483431674,-0.3302763483431674,-0.004902094455570733
17,82.0,10.0,44.0,29.0,12.001,12,-0.005,26.13,100726.0,286.51,172.3,-5.1,74.6,78.6,332.2,4.3,0.0,1.2247409862678929,61.25021062310366,10.001074562112507,10,113439.98426379447,30.76,30.77,0.33,0.31,0.0,100726.0,1.4544903610619697e-05,1.6,1.6000613336986158,1.5995413267653371,1.6669245768396759,-0.006641360422410092,17.11583921313231,-0.10015399224829633,-1.4809653392791655,-0.018753506960871816,0.12531675611710585,-0.0004992869838891411,1.286741750774483,-0.005391289269839801,-0.6748507719731927,-0.0010095012548212636,1.2846756448793275,-0.14497279056353887,1.286741750774483,0.12531671206892614,0.0005102229319849281,-0.005201202570458686,-0.7101716716637101,-0.7101716716637101,-0.0020689171819050604
20,85.0,10.0,46.0,56.0,14.001,14,-0.005,26.01,100720.0,286.40999999999997,230.8,1.7,66.9,67.2,469.1,0.5,0.0,1.225095624083592,60.97114669406343,9.976821106643149,10,113228.40577393303,30.76,30.76,0.37,0.33,0.0,100720.0,1.4536743666146751e-05,1.6,1.5961810490287949,1.5961810490287949,2.198943992935657,0.05606266480495403,19.26872976414055,-0.09997323045440937,-1.6452334087325873,0.006286793547368381,0.1660697707665715,0.0042339931906552565,1.455222845681394,-0.005406190168537541,-0.753136330580784,0.00033996702230110995,1.452169089399502,-0.19093882566973286,1.4552228456813938,0.16607013961983266,-0.0042195008531122555,-0.004169921100052808,-0.7999435884178117,-0.7999435884178117,-0.0006789987205728395
24,89.0,10.0,50.0,10.0,-4.994,-5,-0.005,417.8,100726.0,287.02,2221.6,23.6,-1042.1,-1089.9,2272.3,-38.6,0.0,1.2225647689206816,979.192521581212,40.02331929695356,40,452542.4623059884,11.11,11.11,0.04,0.04,0.0,100726.0,1.4590968102379523e-05,17.0,17.728636725512217,17.728636725512217,20.44643831398157,-0.09222786968774233,-74.94012665273925,-0.9634751975297329,7.585450566008063,0.24194784404505112,0.09615023715154443,-0.0004337054408343715,-0.3524091012418736,-0.0032441759978265703,0.21621396226542716,0.0008146773164366989,-0.35944130747800856,0.0651075204634845,-0.35240910124187363,0.09615019893749188,0.000442096130246633,-0.0032827188186431715,0.18911373252060706,0.18911373252060706,0.0010973499922642723
23,88.0,10.0,49.0,20.0,7.005,7,-0.005,418.08,100724.0,286.89,2738.4,36.2,1368.6,1307.1,1586.4,-41.9,0.0,1.2230944701744102,979.8538255145394,40.028161446450724,40,452952.8953695864,11.11,11.11,0.05,0.05,0.0,100724.0,1.4579510487840156e-05,17.0,17.73078159282742,17.73078159282742,25.250225250714355,0.07756500803954747,202.979542195783,-0.9857308693304272,-7.513034924420477,0.27433154182443664,0.11866010964031133,0.00036450654466791126,0.9538756384365484,-0.0033168743530486975,-0.21400531338684636,0.0009230950187527954,0.9612267533588345,0.0014435545774816178,0.9538756384365485,0.11866014099768385,-0.00035415149527311183,-0.0033027221542677823,-0.2474500175088926,-0.2474500175088926,0.0005134179403481385
21,86.0,10.0,48.0,8.0,12.005,12,-0.005,417.53,100726.0,286.72999999999996,4323.3,60.9,1715.8,1653.3,2339.6,-24.6,0.0,1.2238012763771287,978.5548425172367,39.990067036080994,40,452979.87160559196,11.12,11.1,0.02,0.04,0.0,100726.0,1.4564767885188332e-05,17.0,17.697977608303564,17.72986585624645,39.833798105347164,0.6934618876381641,263.91784757523453,-0.4314323238166077,-15.648863091655915,0.16401622476769084,0.187442180832884,0.0032631587929331093,1.241893549276739,-0.0014536487037786596,-0.44634231509473227,0.0005526289046287847,1.2537200789667289,-0.07496747618949529,1.241893549276739,0.18744246488348149,-0.003246801364465421,-0.0006371858213033161,-0.4991734501488768,-0.4991734501488768,0.00040800983753886593
22,87.0,10.0,48.0,43.0,14.001,14,-0.005,417.67,100726.0,286.84999999999997,5276.0,110.8,1785.8,1684.0,2907.9,-42.0,0.0,1.2232893148879693,978.8854900785873,40.0051913656305,40,452814.1980106368,11.11,11.1,0.04,0.01,0.0,100726.0,1.4575607218085408e-05,17.0,17.720606819081244,17.736571329729067,48.59090976857592,1.2776970977515627,284.03622339663053,-0.4676468658318733,-18.886349219004295,0.277320992022061,0.22857246952911253,0.006010308972072859,1.3361112464594478,-0.0015751361272360368,-0.538501064134189,0.0009340772820060519,1.3517179465076352,-0.1014752670912353,1.3361112464594476,0.2285729931571755,-0.005990362238349129,-0.00011063423094071345,-0.60292489314479,-0.60292489314479,0.0008795605341800391
27,92.0,10.0,52.0,34.0,-4.994,-5,-0.005,105.16,100724.0,286.54999999999995,610.7,-27.2,-279.6,-262.5,622.8,-11.1,0.0,1.224545707724085,245.32651935860207,20.0170348945386,20,226987.95404280777,2.36,2.61,0.05,0.04,0.0,100724.0,1.4548803421317832e-05,17.0,41.74111440373223,37.74292336889199,5.621210917414748,-0.5722602809375046,-17.923429994563755,-0.35059764201888766,1.8064594777819618,0.06629337216315714,0.10550818811019577,-0.010741127891517765,-0.3364165926575976,-0.004711904169921825,0.2055200362756741,0.0008909586925200469,-0.3443241322706933,0.07582211754942285,-0.33641659265759755,0.10550725036821615,0.010750335176958578,-0.007632383862479194,0.1757822402758639,0.1757822402758639,0.0015519863134418669
28,93.0,10.0,53.0,33.0,7.001,7,-0.005,104.76,100724.0,286.53,727.3,-15.3,309.6,309.5,527.2,0.9,0.0,1.224631181894868,244.39338579817968,19.978232601135876,20,226576.06482671705,2.35,2.59,0.04,0.04,0.0,100724.0,1.4546997877605795e-05,17.0,41.8374782231862,37.96064626428092,6.762038140213792,-0.21749670739316004,50.67133111448018,-0.31494411191328153,-1.7739291780679203,-0.001108170653726578,0.12740572660717586,-0.004097925132261642,0.9547147805038904,-0.004248895019757429,-0.20258965749538013,-1.4950274012287794e-05,0.9631255097812021,0.010088790492102012,0.9547147805038904,0.12740536851062098,0.004109043363719743,-0.005361793741917115,-0.2384993397192346,-0.2384993397192346,-0.000668369971253171
25,90.0,10.0,51.0,12.0,12.001,12,-0.005,104.54,100724.0,286.83,1133.8,14.0,372.3,347.4,859.1,-9.4,0.0,1.2233503209160008,243.88016865176186,19.96768979106138,20,226035.53447948475,2.33,2.6,0.05,0.05,0.0,100724.0,1.4574089834027378e-05,17.0,42.174330436326464,37.794688429477176,10.508428474583619,0.13045440131841624,64.85437891275913,-0.42503500957177986,-3.9538592918329476,0.06884731336600435,0.19840931922920502,0.0024631055936331202,1.2245135607323352,-0.005746192522773431,-0.45249643736081047,0.0009307701915551569,1.239005562120184,-0.06053871000958924,1.224513560732335,0.19840953342023018,-0.0024457911048403353,-0.005135077038245927,-0.5084186929258186,-0.5084186929258186,-0.00015730296280152135
26,91.0,10.0,51.0,38.0,14.001,14,-0.005,104.9,100723.0,286.69,1396.6,-5.2,358.8,359.3,1094.6,-2.3,0.0,1.2239355709466595,244.719980859943,19.99725729301139,20,226564.57261284572,2.3,2.55,0.04,0.04,0.0,100723.0,1.4561589143598503e-05,17.0,42.787695337665596,38.5928232457376,12.91981042515825,-0.08666124423347797,70.50879135352191,-0.2510829370642663,-4.817052046024621,0.022155942483202743,0.2431014181365696,-0.0016306331654537464,1.3267057801219033,-0.0033828265133172587,-0.5493920236327415,0.0002985057867175044,1.3461070192643807,-0.0851024041731103,1.3267057801219033,0.24310127491132003,0.0016518477600315823,-0.003800492774357621,-0.6179108799347698,-0.6179108799347698,-0.000629849148154479
31,96.0,10.0,56.0,53.0,-4.995,-5,-0.005,26.18,100720.0,286.33,178.4,-0.9,-89.0,-91.8,199.9,0.4,0.0,1.2254379132252353,61.366487653535316,10.007716059006938,10,113635.4736843289,0.57,0.58,0.05,0.04,0.0,100720.0,1.4529524055411016e-05,17.0,86.4045108009302,84.91477785608657,1.642757631205756,-0.013500961754150661,-6.151095502023865,-0.06830500290243886,0.5119766615186847,-0.0063062730297413164,0.12326591605405118,-0.0010130577917416767,-0.4615534314921458,-0.0036698913160696663,0.232857021645524,-0.0003388234484327305,-0.4705332064399135,0.08261088197200817,-0.4615534314921458,0.12326582717871959,0.001023814768323736,-0.003969904099574622,0.1981141573143065,0.1981141573143065,8.118119290611019e-06
29,94.0,10.0,55.0,1.0,7.001,7,-0.005,26.18,100724.0,286.42999999999995,193.7,-19.1,52.8,61.5,232.1,9.8,0.0,1.2250587317960289,61.366487653535316,10.009264738424235,10,113587.01992775929,0.57,0.6,0.04,0.05,0.0,100724.0,1.4537971416633854e-05,17.0,86.4178817725535,82.09698768392583,1.8563828590053737,-0.16886312382566745,12.422302151923725,-0.12404051298645459,-0.437535843012139,-0.057894476856426076,0.13929549272242892,-0.012670808676044117,0.932119519745089,-0.006664448899885233,-0.19899987816779025,-0.003110554554360587,0.9421479226920007,0.02464396781663572,0.9321195197450889,0.13929438645538095,0.012682964452687797,-0.009780301279357336,-0.23826072626373385,-0.23826072626373385,-0.00427945065685195
32,97.0,10.0,57.0,57.0,12.001,12,-0.005,26.01,100721.0,286.28999999999996,314.2,1.2,36.8,38.1,472.6,-0.2,0.0,1.2256212980104801,60.97114669406343,9.974681327736397,10,113289.63834815651,0.55,0.57,0.05,0.05,0.0,100721.0,1.4525770533935387e-05,17.0,89.25090665476375,86.11929589494748,2.9724956704905146,0.039055255083713304,15.763709162045862,-0.1005495175093294,-1.035564337600634,0.010236238088005613,0.22449033544686117,0.002949550911627983,1.1905148905029252,-0.005437353684974923,-0.47404892288303174,0.0005535386769303372,1.2111729612163018,-0.027958419783149946,1.1905148905029252,0.22449059198893934,-0.0029299604229595195,-0.004620441445743152,-0.5373221902855131,-0.5373221902855131,-0.0004192821528389677
30,95.0,10.0,55.0,47.0,14.001,14,-0.005,26.22,100719.0,286.37,372.2,8.9,30.4,27.8,609.3,-2.9,0.0,1.2252545796701568,61.45950944446812,10.016047497321248,10,113700.69901570203,0.55,0.57,0.05,0.04,0.0,100719.0,1.4533277986912524e-05,17.0,89.62104059879427,86.47644268304711,3.499885715621712,0.12965428720745065,18.05897830232162,-0.0742660448062315,-1.197582968628042,0.02818322528812868,0.2622198441001861,0.009714010610891947,1.3530220298071158,-0.0039841268861335625,-0.5438598050951294,0.0015119365236341649,1.3762669423627494,-0.07291888056451445,1.3530220298071156,0.2622206908090695,-0.00969112757571471,-0.001574977463862378,-0.6177672465044074,-0.6177672465044074,0.0010859709576174644
