,Unnamed: 0,run,hr,min,sec,AoA,rounded_AoA,AoS,dPb,pBar,temp,B1,B2,B3,B4,B5,B6,rpmWT,rho,q,V,rounded_v,Re,rpsM1,rpsM2,iM1,iM2,dPtQ,pInf,nu,rounded_J,J_M1,J_M2,FX,FY,FZ,MX,MY,MZ,CFX,CFY,CFZ,CMX,CMY,CMZ,CN,CT,CL,CD,CYaw,CMroll,CMpitch,CMpitch25c,CMyaw,delta_e,CL_strut_cor,CD_strut_cor,CMpitch25c_strut_cor,Drag coefficient,Thrust coefficient,CL_thrust_cor,V cor,q cor,CDbcor,CMbcor,CL cor,CLa,CM25ca,dAoA,dCD,dCM25c,AoA cor,CD cor,CM cor,CT cor
0,0,33.0,9.0,57.0,15.0,-4.995,-5,0.0,418.37,100757.0,286.42999999999995,-656.3,22.9,-54.7,-95.8,-1342.0,-37.0,0.0,1.2254600953057115,980.5387550946276,40.00348178253014,40,454115.771954864,123.03,123.03,11.26,11.23,0.0,100757.0,1.4533209930516274e-05,1.6,1.600158729231353,1.600158729231353,-6.031749932724279,-0.0997747109542305,-42.236780950024254,-0.7393713554415764,-11.380227913373918,0.2396563807168709,-0.0283256148480533,-0.0004685505973535,-0.1983475447351031,-0.0024861642275806,-0.3239340772938907,0.0008058536705062,-0.1951280027572227,-0.0454879269580538,-0.1983475447351031,-0.0283256148480533,0.0004685505973535,-0.0025381186467247,-0.3159504186697767,-0.267168417980471,0.0010237842452849,15,-0.22114754473510312,-0.0344256148480533,-0.268468417980471,0.03111403973117347,0.0657969475631969,-0.21541296289970396,40.231115555831124,991.9023773704002,0.030757585101116248,-0.26539273859456997,-0.2129451075950451,6.360194156977737,-3.913972627584972,-0.0007271533552499076,0.00011812936780287136,0.005179723315579784,-5.00072715335525,0.03087571446891912,-0.26021301527899016,0.06555771193715826
1,1,34.0,9.0,58.0,14.0,7.001,7,0.0,418.59,100756.0,286.61,336.3,14.3,2372.4,2330.2,-1795.2,-24.3,0.0,1.2246783133344137,981.0583620370156,40.02684929440837,40,453869.236936047,123.03,123.03,11.52,11.46,0.0,100756.0,1.454959815023366e-05,1.6,1.6010934410725783,1.6010934410725783,3.1487540649798533,-0.0699388639783542,244.19534574830703,-0.7100475185789309,-28.036196624289104,0.1666587464592095,0.0147789873855642,-0.0003282649477114,1.1461549107839957,-0.0023862971676364,-0.7976175375614518,0.0005600995485955,1.1394105693222083,-0.1250322058481426,1.1461549107839957,0.0147789873855642,0.0003282649477114,-0.0025286062660603,-0.801783039024681,-1.086635681355233,0.0002477200711904,15,1.1400549107839957,0.008578987385564202,-1.084435681355233,0.07237009911099045,0.06428000733714646,1.1322211484957396,40.24124074303832,992.9276086654644,0.07150500225259195,-1.0714725665799323,1.1186868163529327,6.360194156977737,-3.913972627584972,0.003635766776249538,0.0029532341950717837,-0.026462011507380406,7.00363576677625,0.07445823644766372,-1.0979345780873127,0.06638382622075227
2,2,35.0,9.0,58.0,56.0,12.001,12,0.0,417.55,100755.0,286.61,2354.4,10.8,2795.2,2747.0,-1066.8,8.6,0.0,1.224666158442265,978.6020777720856,39.976908492964334,40,453298.4531916427,123.03,123.03,10.94,11.38,0.0,100755.0,1.454974255595199e-05,1.6,1.5990957847233156,1.5990957847233156,21.717022642712397,0.2890492417935142,313.4795684923548,-0.5007279446038175,-40.68381392281296,-0.0464189437908203,0.1021868311510918,0.0013600863502998,1.4750403064848725,-0.0016870488230452,-1.1603418785772064,-0.0001563943561233,1.4640493653747444,-0.2067498729419107,1.4750403064848725,0.1021868311510918,-0.0013600863502998,-0.0012426917619694,-1.189143540259278,-1.555155881602964,-0.0004113675571338,15,1.4581403064848726,0.0930868311510918,-1.553455881602964,0.15079263480474903,0.05901957129470792,1.4458694476256506,40.346101831461226,995.6101409015236,0.14821663588021905,-1.5269181088165442,1.4211695798441963,3.466197144700655,-5.368846018163837,0.00438082429917208,0.004287632218626055,-0.03838759766707132,12.004380824299172,0.1525042680988451,-1.5653057064836156,0.060769443494784886
3,3,36.0,9.0,59.0,27.0,14.001,14,0.0,417.77,100758.0,286.67,3488.2,-58.7,2853.4,2859.5,-358.6,40.9,0.0,1.2244462929921294,979.1216680187064,39.99110996613043,40,453304.2406515956,123.04,123.03,11.45,12.22,0.0,100758.0,1.4554725407672256e-05,1.6,1.5995338388662748,1.59966385055764,32.14030279234124,-0.4185282249894817,341.35907697178453,-0.3869256023920353,-43.85996548664963,-0.2589857228672511,0.1511520645171352,-0.001968289025607,1.6053715971289495,-0.001302935032696,-1.2502649752682176,-0.0008721097006911,1.5942479748319256,-0.2417401626136033,1.6053715971289495,0.1511520645171352,0.001968289025607,-0.001591516369475,-1.2928676333184732,-1.6914296270264546,-0.0012312502419792,15,1.5719715971289494,0.1400520645171352,-1.6902296270264545,0.19347548922768318,0.05507939195896895,1.5586466862177586,40.442123174569886,1000.8859068722868,0.18926836958402343,-1.6534756263282555,1.5247539532556256,2.9674737099910184,-3.903955235603114,0.004732803959099987,0.005004294804390177,-0.031077348645979337,14.0047328039591,0.19427266438841362,-1.684552974974235,0.055900971544596945
4,6,39.0,10.0,1.0,57.0,-4.995,-5,0.0,417.32,100752.0,286.88,184.0,24.3,-226.1,-268.3,-579.2,-37.5,0.0,1.2234771212012732,978.0588745763722,39.985227433536735,40,452620.88939829136,109.36,109.36,6.82,7.31,0.0,100752.0,1.4574555450817507e-05,1.8,1.7993571146916678,1.7993571146916678,1.699106370950575,-0.0801050932647857,-44.57895542324008,-0.7611369653642691,-9.627861977092358,0.240972874069169,0.0079993804325209,-0.0003771341962828,-0.2098773977966931,-0.0025658411853498,-0.2747484801974277,0.0008123349055092,-0.2097768429373914,-0.0103047736722627,-0.2098773977966931,0.0079993804325209,0.0003771341962828,-0.0025912605693924,-0.2770031293169702,-0.2245589185826224,0.0010348678703653,15,-0.2326773977966931,0.0018993804325208993,-0.2258589185826224,0.03111403973117347,0.029330537928995627,-0.23012107297830314,40.24400287031903,990.0277276402211,0.030737889286728035,-0.22312841706816622,-0.22733904452346632,5.284666987111303,-4.424378852663544,-0.0007271533552499076,0.00011812936780287136,0.005762196073178543,-5.00072715335525,0.030856018654530908,-0.21736622099498767,0.02907153125375753
5,7,40.0,10.0,2.0,44.0,7.001,7,0.0,417.35,100754.0,286.95,1136.6,11.8,2177.3,2134.5,-1024.8,-21.9,0.0,1.2232029411308545,978.1297268894716,39.99115694894886,40,452500.6793280288,109.36,109.36,7.43,6.69,0.0,100754.0,1.458058916027122e-05,1.8,1.799623946129884,1.799623946129884,10.51182366543235,-0.0766841303900344,239.1612969321432,-0.7527145926169789,-25.808802330838105,0.1492051101057546,0.0494860044840679,-0.0003610021763223,1.12588808460694,-0.0025372650264548,-0.7364475717195547,0.0005029434945899,1.1235251747264652,-0.0881137075349076,1.12588808460694,0.0494860044840679,0.0003610021763223,-0.0026806402394572,-0.7503953489731638,-1.03127664265478,0.0001724592570999,15,1.11978808460694,0.0432860044840679,-1.02907664265478,0.07237009911099045,0.029312034418989892,1.1162158462184286,40.25346012950949,990.5648444061658,0.0714615965609333,-1.0161580648783106,1.1022033610185895,6.350214114807495,-3.8530777632322373,0.003635766776249538,0.0029532341950717837,-0.026120260936383515,7.00363576677625,0.07441483075600508,-1.0422783258146942,0.03137212164176877
6,5,38.0,10.0,0.0,49.0,12.005,12,0.0,418.17,100757.0,286.77,3047.8,34.8,2620.6,2566.7,-351.9,-3.7,0.0,1.2240071663647345,980.0663890340433,40.0175747931528,40,453318.5228185626,109.36,109.37,7.56,7.07,0.0,100757.0,1.456389839375202e-05,1.8,1.800812763575081,1.8006481103096903,28.096439551948382,0.5235385152359457,309.28362360642285,-0.3704493629759322,-38.14248834741588,0.032399841179537,0.1320068823060706,0.0024597667272276,1.4531224436861745,-0.0012462504047765,-1.0862354391977904,0.0001089982038579,1.4487989034426871,-0.1731253612383677,1.4531224436861745,0.1320068823060707,-0.0024597667272276,-0.0005635356656466,-1.1234419708130323,-1.485641696673704,-1.0599402197141434e-05,15,1.4362224436861746,0.12290688230607069,-1.483941696673704,0.15079263480474903,0.028623893323555964,1.4302712016274868,40.36026533653035,997.8000888493883,0.14811262770725916,-1.457567900072191,1.404851279914067,3.4653174322798765,-5.202478008296965,0.00438082429917208,0.004287632218626055,-0.03726126933882485,12.004380824299172,0.1524002599258852,-1.4948291694110158,0.030267433746218295
7,4,37.0,10.0,0.0,18.0,14.001,14,0.0,417.69,100757.0,286.73,4131.2,-61.6,2659.0,2672.1,317.3,40.3,0.0,1.2241779203376522,978.9327255925722,39.99163410992599,40,453137.0394310696,109.35,109.36,8.25,7.25,0.0,100757.0,1.456028672949254e-05,1.8,1.7998099952621789,1.7996454186349602,38.0563678483656,-0.468990143674517,334.55290953946445,-0.3503271495649788,-41.33629756056376,-0.256716891257561,0.1790091664200857,-0.0022060311959596,1.5736666646353608,-0.0011799209271766,-1.1785531386864605,-0.0008646364768778,1.5702246628582486,-0.2070399990308507,1.5736666646353603,0.1790091664200857,0.0022060311959596,-0.0015389825105698,-1.2290074035965612,-1.6215635693111234,-0.0012112890560264,15,1.5402666646353602,0.16790916642008571,-1.6203635693111234,0.19347548922768318,0.026369792007539982,1.5338872345663273,40.451725080704996,1001.1679967251645,0.18917852810371566,-1.5843763789346232,1.4998206257065085,2.7261235957041086,-3.9016781791777775,0.004732803959099987,0.005004294804390177,-0.031073673754956566,14.0047328039591,0.19418282290810585,-1.6154500526895799,0.02709877973908181
8,10,43.0,10.0,5.0,5.0,-4.995,-5,0.0,416.94,100749.0,286.96,2002.2,26.4,-614.5,-658.5,1135.9,-38.3,0.0,1.2230996145431592,977.1614191533154,39.97304559700552,40,452245.2836556677,56.24,56.24,-0.87,-0.82,0.0,100749.0,1.4582216186920367e-05,3.5,3.497826174960021,3.497826174960021,18.42673015240221,-0.0486559580555784,-50.17419954027029,-0.8129164964940296,-5.000755895095265,0.2419288062321783,0.0868325880638055,-0.0002292822832779,-0.2364367179677563,-0.002742910144888,-0.1428366924820141,0.0008163064469928,-0.2430992122016723,0.0659165607427236,-0.2364367179677563,0.0868325880638055,0.0002292822832779,-0.0027257970358744,-0.1673107151737892,-0.1065359121233711,0.001050538258899,15,-0.2592367179677563,0.08073258806380551,-0.1078359121233711,0.03111403973117347,-0.049810229226929785,-0.2635779654924605,40.25471365206091,989.6458601516198,0.030721534281614754,-0.10647555572052989,-0.2602529138844645,5.308737915940975,-4.569629953803491,-0.0007271533552499076,0.00011812936780287136,0.005925227812017393,-5.00072715335525,0.030839663649417627,-0.1005503279085125,-0.050085653380743715
9,11,44.0,10.0,6.0,1.0,7.001,7,0.0,417.62,100752.0,287.04999999999995,2950.5,8.1,1727.0,1685.5,735.4,-22.1,0.0,1.222752539732525,978.767401455585,40.01155769428753,40,452442.1776219965,56.23,56.23,-0.96,-0.88,0.0,100752.0,1.4589913438778196e-05,3.5,3.501818817669514,3.501818817669514,27.20046614600068,-0.1299968833088936,227.266610395361,-0.8471173453075547,-20.578056036179674,0.1462392313817307,0.1279668947471921,-0.0006115813381491,1.0691950004059152,-0.0028536192988569,-0.5868070058455366,0.0004926248945704,1.0768205668788169,-0.0033078378175676,1.0691950004059152,0.1279668947471921,0.0006115813381491,-0.0030634779736314,-0.6228748549753753,-0.8920799966950795,0.0001155547770482,15,1.0630950004059152,0.12176689474719211,-0.8898799966950796,0.07237009911099045,-0.04975777878005968,1.0691589482351396,40.264265371200416,991.7428388530022,0.0714232471109845,-0.8782372787081414,1.055170639515151,6.282779083186032,-3.7519473714093614,0.003635766776249538,0.0029532341950717837,-0.025554804248996473,7.00363576677625,0.07437648130605627,-0.9037920829571379,-0.04773632900490517
10,9,42.0,10.0,4.0,7.0,12.005,12,0.0,417.25,100754.0,286.91,4777.9,122.8,2121.4,2011.2,1511.5,-42.5,0.0,1.2233734758547932,977.8935528363936,39.98354154398649,40,452526.6534850092,56.23,56.24,-0.87,-0.91,0.0,100754.0,1.457697588084416e-05,3.5,3.499366839091913,3.498744618814692,44.01432432393127,1.457451582860054,290.3861805686024,-0.3635238248598896,-30.769768176151853,0.2825101538506751,0.2072541509532978,0.0068628314759103,1.3673671520976611,-0.0012256691410369,-0.8782195131866598,0.0009525207260839,1.3805703368264426,-0.0816869438647516,1.367367152097661,0.2072541509532977,-0.0068628314759103,0.000495020430461,-0.9366347108273012,-1.2817772950339117,0.0010346513660349,15,1.350467152097661,0.1981541509532977,-1.2800772950339117,0.15079263480474903,-0.048316567652269764,1.360512731372755,40.37413977518913,996.2725503486698,0.14801084837594886,-1.256462735531378,1.3354143181959903,3.2087889735476534,-4.4620324705167045,0.00438082429917208,0.004287632218626055,-0.03226095343819924,12.004380824299172,0.1522984805945749,-1.2887236889695772,-0.04677708037172418
11,8,41.0,10.0,3.0,39.0,14.001,14,0.0,416.97,100753.0,286.91,5715.3,40.1,2158.2,2111.8,2086.7,-18.2,0.0,1.2233613336720923,977.2322704113608,39.97021854853709,40,452371.37627344526,56.23,56.24,-0.6,-0.7,0.0,100753.0,1.4577120561160186e-05,3.5,3.4982008081033444,3.49757879515738,52.631360411912425,0.4403807360780503,312.94977497264665,-0.4186170900061003,-33.76838297535926,0.1216651893596896,0.2479976565358244,0.0020750630361087,1.4746115281691212,-0.0014123785396062,-0.9644570805841558,0.0004104880249066,1.4908033001487444,-0.116135769348398,1.4746115281691212,0.2479976565358244,-0.0020750630361087,-0.000902244604207,-1.0343559562125648,-1.407056781249751,0.0001800050386835,15,1.4412115281691211,0.2368976565358244,-1.4058567812497509,0.19347548922768318,-0.04473449178359174,1.4520337812200954,40.46994628868768,1000.3294926397882,0.1890082147912844,-1.3733960903106308,1.4185068811588764,2.3851969773038233,-3.596185280428341,0.004732803959099987,0.005004294804390177,-0.02885753251355979,14.0047328039591,0.1940125095956746,-1.4022536228241906,-0.044181031273101294
12,14,47.0,10.0,8.0,33.0,-4.995,-5,0.0,104.74,100751.0,286.53,-42.1,-15.3,-29.8,-22.0,-249.5,-12.0,0.0,1.2249594556122656,244.3467295088627,19.97364864147382,20,226584.7993427056,61.52,61.51,1.51,1.32,0.0,100751.0,1.4543099465255593e-05,1.6,1.5977814526638974,1.598041212288782,-0.3850077362933282,-0.3974786320814897,-9.290374668967896,-0.2871103561457236,-3.1731087371585778,0.074409430732308,-0.0072554391952922,-0.0074904522030124,-0.1750763482342726,-0.0038741308310132,-0.3624506354558281,0.0010040455300465,-0.1737797383567088,-0.0224715741691296,-0.1750763482342726,-0.0072554391952922,0.0074904522030124,-0.0058751854569401,-0.3604056683822463,-0.3169607337930691,0.0015117778610916,15,-0.19787634823427258,-0.0133554391952922,-0.31826073379306913,0.056821462891657154,0.07045294119578403,-0.19173596981559693,20.12506186894005,247.41212961991994,0.05611745327448075,-0.31431752983531186,-0.18936038918392256,4.84965301157415,-3.287950241269771,-0.0006099624395744889,8.312124517474172e-05,0.0040110266031414075,-5.000609962439574,0.05620057451965549,-0.31030650323217046,0.06982968113106876
13,13,46.0,10.0,7.0,51.0,7.005,7,0.0,105.18,100750.0,286.61,205.0,-0.4,552.9,544.4,-250.8,-8.6,0.0,1.2246053839815212,245.37317642532733,20.018450481872748,20,226978.08970352996,61.52,61.52,1.51,1.58,0.0,100750.0,1.4550464627542855e-05,1.6,1.6013653521766773,1.6013653521766773,1.9563290112732628,-0.1003793972568322,60.88193532123243,-0.2999319447046559,-6.7926609137343,0.0624959978442762,0.0367126379492952,-0.0018837283748402,1.1425156178847908,-0.0040302092361894,-0.7726508584965851,0.000839763660336,1.138464649594502,-0.102897990843017,1.1425156178847908,0.0367126379492952,0.0018837283748402,-0.0046295112538539,-0.782998424477064,-1.0676145868756894,0.0002688987708519,15,1.1364156178847908,0.030512637949295197,-1.0654145868756895,0.0989202726313757,0.06896657853832097,1.1280107062414262,20.12838623275135,248.53354142963155,0.09766239747278692,-1.05186672144043,1.1136668654061834,6.2214968565443085,-3.5841081380722923,0.0036951760598905492,0.003050535799987825,-0.025376385643347314,7.003695176059891,0.10071293327277474,-1.0772431070837774,0.07077270174824386
14,15,48.0,10.0,9.0,38.0,12.001,12,0.0,105.15,100749.0,286.48999999999995,679.0,-12.4,631.4,623.2,61.9,5.7,0.0,1.2251061656229014,245.30319083912173,20.011504172189905,20,227066.0951450689,61.51,61.51,1.57,1.41,0.0,100749.0,1.4539778224966004e-05,1.6,1.601069937750176,1.601069937750176,6.32311848063967,-0.1074531086116299,78.0575961939813,-0.3738572116454875,-9.876531428054944,-0.0285019348785186,0.1186940375471266,-0.0020170495535003,1.4652534634381214,-0.0050249821188054,-1.1237551465977778,-0.000383092016563,1.457908746846477,-0.1885684823484129,1.4652534634381214,0.1186940375471267,0.0020170495535003,-0.0053915861217518,-1.1572094134010684,-1.5216866001126876,-0.0014957849778525,15,1.4483534634381214,0.1095940375471267,-1.5199866001126876,0.17172615112120893,0.06354525519858041,1.4351416619863386,20.188590199947622,249.9511799147526,0.1685328024253406,-1.4917215560555295,1.4084543594132108,3.380720428310793,-5.207447949056935,0.004453661708567565,0.004431393400024727,-0.035316484525127284,12.004453661708567,0.17296419582536532,-1.5270380405806567,0.06481095855789716
15,12,45.0,10.0,7.0,10.0,14.001,14,0.0,105.34,100748.0,286.73999999999995,1016.9,-10.8,616.0,621.5,347.3,2.5,0.0,1.2240258829450592,245.74643429182908,20.038412368752148,20,227016.80010960865,61.53,61.51,1.66,1.46,0.0,100748.0,1.456249039139492e-05,1.6,1.6027016755759744,1.603222794638103,9.42581575338668,-0.120140259851679,84.00417107292114,-0.1779739283857664,-10.816587693581234,-0.0076695878268366,0.1766169995024991,-0.0022511380202642,1.5740350786363726,-0.0023878174252019,-1.2284952784262648,-0.000102900327161,1.5700033737671035,-0.2094502319191579,1.5740350786363724,0.1766169995024991,0.0022511380202642,-0.0029076235667994,-1.2782753039899524,-1.6707761474317282,-0.0008033103582292,15,1.5406350786363723,0.1655169995024991,-1.669576147431728,0.22299857069044332,0.059272823200159586,1.5262956848902458,20.24790836443585,251.87645200414727,0.21757136549806766,-1.6289430065629185,1.4891496178078891,2.3117488663663464,-4.271100915448501,0.004698623275361323,0.004932272996417927,-0.03305468397661295,14.004698623275361,0.2225036384944856,-1.6619976905395315,0.05876273933340148
16,16,49.0,10.0,10.0,44.0,-4.994,-5,0.0,26.0,100746.0,286.42999999999995,32.9,1.5,-37.0,-38.5,11.4,-0.5,0.0,1.2253263074691505,60.9478914268,9.97397927674608,10,113211.31593106514,30.72,30.76,0.32,0.3,0.0,100746.0,1.4534796745965383e-05,1.6,1.5978041564054042,1.595726387671457,0.3040621060937973,0.0128573909521433,-4.325342568609282,-0.0131486602341164,-0.5211561439808888,1.2016836219738238e-05,0.0229722955581751,0.0009713929461783,-0.3267853701105304,-0.0007113032181036,-0.2386599899491778,6.500749218803779e-07,-0.3275446048517165,-0.0055620422527501,-0.3267853701105304,0.0229722955581751,-0.0009713929461783,-0.0004357957637049,-0.2451347996411314,-0.1632486484282023,3.858424761870893e-05,15,-0.34958537011053037,0.0168722955581751,-0.1645486484282023,0.08936782139898578,0.07276938136844091,-0.3432431006280763,10.062957268145965,61.71772971685662,0.0882530887098945,-0.1624961450273441,-0.3389616456414215,5.514243741825431,-4.547247338395076,-0.000552180807540081,6.811903234835364e-05,0.004701539404186418,-5.00055218080754,0.08832120774224285,-0.1577946056231577,0.07171876981755858
17,19,52.0,10.0,13.0,1.0,7.006,7,0.0,26.28,100748.0,286.29,80.3,-9.6,114.5,116.6,48.8,3.5,0.0,1.2259498469232817,61.59904240851312,10.02456708219209,10,113886.74790687434,30.76,30.76,0.3,0.31,0.0,100748.0,1.452187769433146e-05,1.6,1.603819877120828,1.603819877120828,0.8129550329773647,-0.09579454036192,15.081476286551595,-0.1472411428890985,-1.7135029389768204,-0.0164311590595936,0.0607705748268803,-0.0071608994924972,1.1273809079145258,-0.0078811061041603,-0.7763925044690412,-0.0008794804592119,1.126375574125989,-0.0771935250349317,1.1273809079145258,0.0607705748268802,0.0071608994924972,-0.0097182385454445,-0.7935208713698688,-1.075114764901366,-0.0020582791663404,15,1.1212809079145258,0.0545705748268802,-1.072914764901366,0.12528647098728796,0.07131425461315931,1.1125898865293926,10.066693989078486,62.42343956056471,0.12363187119913781,-1.0587452817263703,1.0978964325910474,6.860491970166561,-4.353839996241419,0.0037529576919249573,0.00314668443569308,-0.030210410353620244,7.003752957691925,0.1267785556348309,-1.0889556920799905,0.07281754455597512
18,18,51.0,10.0,12.0,21.0,12.005,12,0.0,26.19,100748.0,286.33,220.2,2.7,101.2,99.6,292.6,-0.2,0.0,1.2257785830184271,61.38974308738623,10.008221102473398,10,113672.800420179,30.76,30.76,0.32,0.32,0.0,100748.0,1.4525485993379496e-05,1.6,1.6012047011268018,1.6012047011268018,2.107041783848721,0.0627769074341355,19.0462393904496,-0.113370690137356,-2.4596680947243392,0.0103087662436451,0.1580440365135439,0.0047087418611154,1.4286117042119528,-0.0060888732007187,-1.1182814811908064,0.0005536595961209,1.4302398784937087,-0.1425594923362719,1.4286117042119526,0.1580440365135439,-0.0047087418611154,-0.0047727189031023,-1.1628266620057557,-1.5203866316291823,-0.0004511606919081,15,1.4117117042119527,0.1489440365135439,-1.5186866316291823,0.2132893050478388,0.06591238645815094,1.398007748497605,10.090837062406614,62.5101013681919,0.20946655586190918,-1.4914674605439724,1.3729514852157032,3.1525292356754417,-5.103460431969502,0.004511443340601974,0.004547124756114007,-0.03506135279873468,12.004511443340602,0.2140136806180232,-1.526528813342707,0.06665294500947895
19,17,50.0,10.0,11.0,51.0,14.001,14,0.0,26.18,100748.0,286.35,288.2,6.4,90.7,89.1,435.6,-1.7,0.0,1.2256929690087877,61.36648765353532,10.006674746570289,10,113641.12112894122,30.76,30.76,0.31,0.34,0.0,100748.0,1.4527290268678256e-05,1.6,1.6009573012825815,1.6009573012825815,2.726917126522389,0.103800987490552,21.24933734523748,-0.0788504551037227,-2.633385176850088,0.0206655488510977,0.2046168778759805,0.0077888080184698,1.5944646876969444,-0.0042364773904864,-1.1977151991808206,0.0011103186450161,1.596600307689947,-0.1872249035480976,1.5944646876969442,0.2046168778759805,-0.0077888080184698,-0.0022491675746735,-1.2553870735763777,-1.6545371504988642,0.0005331717753333,15,1.561064687696944,0.19351687787598051,-1.653337150498864,0.25302752230262304,0.06134779463470754,1.5462233129280565,10.118571170415208,62.83037449625006,0.2471322262183123,-1.6148159969868598,1.5101978080374359,3.9396969195267126,-3.8508309372359157,0.004756404907395731,0.005054328814777155,-0.03028386172358109,14.004756404907395,0.25218655503308945,-1.6450998587104408,0.06048108230488905
20,21,54.0,10.0,15.0,10.0,-4.995,-5,0.0,417.9,100744.0,286.81,2191.6,22.7,-639.6,-681.8,1269.5,-36.3,0.0,1.223678556609293,979.4287007244628,40.00992489338987,40,453061.0235153285,11.1,11.11,0.04,0.04,0.0,100744.0,1.4569390183785767e-05,17.0,17.738669971177323,17.7227035715633,20.169206020141814,-0.0823873599496571,-49.85815017830808,-0.8234195947784521,-5.101915839776432,0.22848065202967,0.0948236693494068,-0.0003873366046553,-0.2344035130663866,-0.0027719176700401,-0.1453887843248292,0.0007691455979909,-0.241769502724807,0.074054323026741,-0.2344035130663866,0.0948236693494069,0.0003873366046553,-0.0028031795374541,-0.1721151169969531,-0.1116727413157514,0.0010102941148248,15,-0.2572035130663866,0.08872366934940691,-0.1129727413157514,0.03111403973117347,-0.057831160466773654,-0.26224383081082725,40.2514294412275,991.7802589673208,0.030726547773720775,-0.11156578712242053,-0.25897786547142554,5.336191793497191,-4.653591230108321,-0.0007271533552499076,0.00011812936780287136,0.006019355167180721,-5.00072715335525,0.030844677141523648,-0.10554643195523981,-0.05810155197775619
21,20,53.0,10.0,14.0,18.0,7.006,7,0.0,418.36,100744.0,286.61,3156.6,17.4,1706.9,1657.0,876.2,-26.1,0.0,1.224532454628629,980.5151367036772,40.018149198923766,40,453716.5416132141,11.11,11.1,0.04,0.04,0.0,100744.0,1.455133120806145e-05,17.0,17.726346590875323,17.742316272488726,29.096542484843848,-0.0303138134123937,227.7469603935847,-0.882427324026712,-20.749883421761535,0.1720613923108841,0.1366431495997763,-0.00014235969594,1.0695450153971084,-0.0029672668211898,-0.5906521643809028,0.0005785768943351,1.07822594695817,0.0051669719861218,1.0695450153971084,0.1366431495997764,0.00014235969594,-0.0030555072107431,-0.6291654416947516,-0.8987219284342942,0.0002015666404349,15,1.0634450153971085,0.13044314959977638,-0.8965219284342942,0.07237009911099045,-0.058451381787558536,1.0705684469166818,40.2614253979467,993.3735969314712,0.07143332361788825,-0.8849171388609381,1.056710758491771,6.281426989956334,-3.7575699267639937,0.003635766776249538,0.0029532341950717837,-0.025586452756833498,7.00363576677625,0.07438655781296002,-0.9105035916177716,-0.05641977983269219
22,22,55.0,10.0,16.0,8.0,12.001,12,0.0,417.05,100742.0,286.89,4908.8,72.8,2037.5,1965.3,1693.9,-30.3,0.0,1.22331304469948,977.4212075066956,39.97487122180035,40,452430.7085936007,11.11,11.1,0.02,0.04,0.0,100742.0,1.4576905504925572e-05,17.0,17.707176278464615,17.7231286895263,45.21905390663848,0.8113426942350851,286.90857099911426,-0.43523795343726,-29.67574150645102,0.2014643110778114,0.2130298663225282,0.0038222875262165,1.3516446994428617,-0.0014681720675494,-0.8474035181658525,0.0006795920985212,1.3663981513500545,-0.0726719303757047,1.3516446994428617,0.2130298663225282,-0.0038222875262165,-0.0005236133203587,-0.9074466183274218,-1.2490461561649355,0.0005558646446533,15,1.3347446994428618,0.2039298663225282,-1.2473461561649355,0.15079263480474903,-0.05430381185812777,1.3460350967841346,40.37339284534124,995.7544831898647,0.148016324989893,-1.2243807150452968,1.3212526499810713,3.034461238587528,-4.018438380409544,0.00438082429917208,0.004287632218626055,-0.029266338013261672,12.004380824299172,0.15230395720851905,-1.2536470530585584,-0.05275872561282467
23,23,56.0,10.0,16.0,32.0,14.001,14,0.0,417.71,100743.0,286.89,5928.1,100.2,2094.5,2002.0,2351.9,-37.3,0.0,1.2233251877286506,978.9799611435766,40.006535155999735,40,452793.5716736311,11.11,11.11,0.02,0.04,0.0,100743.0,1.4576760810946784e-05,17.0,17.72120206134775,17.72120206134775,54.58918008248801,1.1646314790389478,308.8221322652847,-0.4120796726460419,-32.395357043985385,0.2468607671107733,0.256763655589218,0.0054779177031136,1.452564399895224,-0.0013878398233029,-0.9235903991661284,0.0008314003969366,1.4715319944599352,-0.1022961385159572,1.4525643998952238,0.256763655589218,-0.0054779177031136,-4.965881264284647e-05,-0.995959997647934,-1.363842996262918,0.0007946863463483,15,1.4191643998952237,0.245663655589218,-1.3626429962629178,0.19347548922768318,-0.0537648639193973,1.4321712976912624,40.47623456375966,1002.429935897538,0.18894949177346984,-1.330766510219614,1.3986683269882396,2.217795780329357,-3.288687219526284,0.004732803959099987,0.005004294804390177,-0.02661739232720314,14.0047328039591,0.19395378657786003,-1.357383902546817,-0.0532719241514231
24,24,57.0,10.0,17.0,57.0,-4.994,-5,0.0,105.03,100745.0,286.57,606.4,-10.8,-175.6,-167.7,375.7,-13.9,0.0,1.2247155338477511,245.02324932723684,20.00327161700469,20,226851.02026596127,2.38,2.64,0.03,0.04,0.0,100745.0,1.4547576017047914e-05,17.0,41.36188963352058,37.28837019991628,5.581277413945586,-0.3462615917378687,-11.801337323697515,-0.252134820571923,-1.3493725821376747,0.0852877831460841,0.1048883118521564,-0.0065072547237802,-0.2217811905187886,-0.0033927939723238,-0.1537074889480665,0.0011476553532531,-0.2300699456943901,0.0851837691071887,-0.2217811905187886,0.1048883118521564,0.0065072547237802,-0.0051071358113018,-0.1832705709845638,-0.1257530845609663,0.0015878820760864,15,-0.24458119051878863,0.0987883118521564,-0.12705308456096628,0.056821462891657154,-0.04212989757381989,-0.24825305303371767,20.135904965456763,248.36455099715292,0.056057031542317184,-0.1253438121148497,-0.24491325136986092,4.957635573854676,-3.7345262752433066,-0.0006099624395744889,8.312124517474172e-05,0.004431251617501038,-5.000609962439574,0.056140152787491925,-0.12091256049734868,-0.04281381017189967
25,27,60.0,10.0,20.0,8.0,7.005,7,0.0,104.98,100740.0,286.42999999999995,837.9,-11.4,399.3,394.5,349.7,-0.2,0.0,1.225253332285572,244.9066074239497,19.994120390953,20,226933.08353343743,2.36,2.61,0.04,0.05,0.0,100740.0,1.4535662427725118e-05,17.0,41.69333125699194,37.69971715191608,7.779256951332211,-0.1695457076724598,57.02668316939971,-0.3329856960296677,-5.139785665428179,0.0062740499235871,0.1462643196741937,-0.0031877707268873,1.0722063905627437,-0.0044828791508911,-0.5857535747319451,8.446551287173952e-05,1.0820407250004112,0.014410572990904,1.0722063905627437,0.1462643196741937,0.0031877707268873,-0.0053514937587147,-0.6269786073898785,-0.8974887886399814,-0.0005688115319376,15,1.0661063905627437,0.1400643196741937,-0.8952887886399814,0.0989202726313757,-0.04140490684564246,1.0711523793737734,20.13906203051562,248.3241685974371,0.09755888245769581,-0.8829673773959766,1.0564106456016935,6.213881746477811,-3.6850736514113347,0.0036951760598905492,0.003050535799987825,-0.025953291853216064,7.003695176059891,0.10060941825768363,-0.9089206692491927,-0.03970307603050638
26,26,59.0,10.0,19.0,39.0,12.005,12,0.0,104.78,100742.0,286.46,1281.6,10.7,456.6,432.6,703.3,-7.1,0.0,1.225149338105962,244.44004212451608,19.97591392098499,20,226688.72038363563,2.33,2.59,0.03,0.04,0.0,100742.0,1.4538081090081902e-05,17.0,42.19170085707012,37.95624053937196,11.86743378656897,0.1062026789745256,71.40811027506064,-0.4267175220970068,-7.402054769664118,0.0536019740949711,0.2235554431097736,0.0020006167621904,1.3451662778384093,-0.0057557256138813,-0.8451822845913863,0.000723003484218,1.3622456284963451,-0.0611244535373922,1.3451662778384093,0.2235554431097736,-0.0020006167621904,-0.00522867992554,-0.9081920498136098,-1.248753456937696,-0.0003803589945827,15,1.3282662778384093,0.2144554431097736,-1.2470534569376959,0.17172615112120893,-0.04357692705547845,1.337326430423156,20.198432398178696,249.3145868227426,0.16836859868048518,-1.2226713383685863,1.3111793142664423,2.919433893331394,-4.02519659710437,0.004453661708567565,0.004431393400024727,-0.027202474795909287,12.004453661708567,0.1727999920805099,-1.2498738131644955,-0.042479095850356266
27,25,58.0,10.0,18.0,59.0,14.001,14,0.0,104.96,100741.0,286.48,1558.9,-7.8,434.2,437.4,959.6,0.5,0.0,1.2250516464681485,244.85995072741883,19.993861416048336,20,226861.97288287745,2.32,2.56,0.03,0.04,0.0,100741.0,1.4540030347185429e-05,17.0,42.41163244987175,38.43554190769627,14.412697222377751,-0.0940987223685236,76.60880220090554,-0.2092796552797736,-8.132932683203965,0.0039743970524331,0.2710368158288794,-0.0017695659383402,1.440660654465088,-0.0028180014295897,-0.9270429616880034,5.351622239888285e-05,1.463435123100492,-0.0855670341561546,1.4406606544650875,0.2710368158288793,0.0017695659383402,-0.0032311705767161,-1.003435492750514,-1.369294273525637,-0.0007298192943028,15,1.4072606544650874,0.2599368158288793,-1.368094273525637,0.22299857069044332,-0.03804446352871004,1.4164644431990254,20.266317138276968,251.42440748174315,0.21717628601953345,-1.3323746081822876,1.3794818778444933,1.9606456026785066,-3.4601603454657193,0.004698623275361323,0.004932272996417927,-0.027184778587149537,14.004698623275361,0.2221085590159514,-1.359559386769437,-0.03896172169072195
28,28,61.0,10.0,21.0,29.0,-4.994,-5,0.0,26.11,100743.0,286.33,178.9,-2.5,-71.0,-71.4,150.5,1.5,0.0,1.225717749126786,61.203699875715024,9.993292488940831,10,113497.60905809815,0.57,0.59,0.03,0.04,0.0,100743.0,1.452620691125932e-05,17.0,86.27998073750547,83.35523562775951,1.6473084215409082,-0.0256582672083033,-5.009448430159654,-0.0404350458774569,-0.1320360556335273,-0.0134097149892777,0.1239361562828084,-0.0019304138636647,-0.3768886113932358,-0.0021782725514192,-0.0602123124100062,-0.0007223934942975,-0.3862466927360027,0.0906569830877804,-0.3768886113932358,0.1239361562828084,0.0019304138636647,-0.0027749162187636,-0.0951440859391794,0.0014175872448212,-0.0004780907582291,15,-0.3996886113932358,0.1178361562828084,0.00011758724482120015,0.08936782139898578,-0.02858880461118677,-0.40218028989339144,10.068579667017552,62.04604426175593,0.08815455335677891,0.00011599086657140725,-0.39672024302982667,5.357667022283982,-4.134561966342247,-0.000552180807540081,6.811903234835364e-05,0.0043503484331344116,-5.00055218080754,0.08822267238912726,0.004466339299705819,-0.02973832790422587
29,30,63.0,10.0,22.0,55.0,7.006,7,0.0,26.23,100739.0,286.27,223.8,-11.0,79.0,83.0,186.0,4.3,0.0,1.2259259728679834,61.48276491533847,10.01519868911506,10,113784.28679099724,0.58,0.6,0.03,0.04,0.0,100739.0,1.4521370890762254e-05,17.0,84.97826745447887,82.14565853932957,2.1332098171840856,-0.1076235370574325,14.215590112466955,-0.1335751387926087,-1.3249133057672615,-0.021996759687369,0.1597647503230159,-0.0080603639587398,1.0646633006830135,-0.0071631525457375,-0.6014569020438804,-0.0011796068233714,1.0762008996565309,0.0287113713622121,1.064663300683014,0.1597647503230159,0.0080603639587398,-0.0092206620905151,-0.6464870711536401,-0.9155372960677728,-0.0022954735689915,15,1.058563300683014,0.1535647503230159,-0.9133372960677728,0.12528647098728796,-0.02842488703347529,1.0620274230021491,10.07274109102054,62.380482811952994,0.12348347264327043,-0.9001934536451801,1.0467437800845643,6.892033033619076,-4.378137068143543,0.0037529576919249573,0.00314668443569308,-0.03034998885130031,7.003752957691925,0.12663015707896352,-0.9305434424964805,-0.02707111009377976
30,29,62.0,10.0,22.0,22.0,12.001,12,0.0,26.08,100742.0,286.29,348.8,6.5,57.7,57.0,432.8,-2.3,0.0,1.2258768360537702,61.13393382404351,9.986947105517125,10,113452.59918472909,0.56,0.58,0.03,0.04,0.0,100742.0,1.4522742589471186e-05,17.0,87.76493167812433,84.73855472370626,3.290280638619568,0.0981803461711787,17.21058146386649,-0.0666156197145956,-1.8883134328645503,0.0236952313120446,0.2478285754425347,0.0073950820615309,1.296325254649772,-0.0035927391415961,-0.8621090044832656,0.0012779402994175,1.3195234224303525,-0.027131279114014,1.296325254649772,0.2478285754425347,-0.0073950820615309,-0.0017411659330867,-0.9319602241036458,-1.2618410797112338,0.000887971122157,15,1.2794252546497722,0.2387285754425347,-1.2601410797112338,0.2132893050478388,-0.02598484623382924,1.284827807965887,10.093689469853409,62.2848211576053,0.20934818496430174,-1.2368564273643845,1.2610869988487794,2.4586510114992675,-3.9723213678041867,0.004511443340601974,0.004547124756114007,-0.02721036302284458,12.004511443340602,0.21389530972041576,-1.2640667903872291,-0.025365303056375924
31,31,64.0,10.0,23.0,33.0,14.001,14,0.0,26.19,100741.0,286.23,413.4,10.6,49.8,46.1,577.6,-4.0,0.0,1.2261216353289142,61.38974308738623,10.006820921831226,10,113719.61858886242,0.56,0.57,0.03,0.04,0.0,100741.0,1.4517474552989092e-05,17.0,87.93958206052469,86.39678237525234,3.878855042430354,0.1431023607110711,19.59290859220829,-0.0764358086662254,-2.005915675197309,0.0353610629571053,0.2909434035222817,0.01073375710665,1.469616020284777,-0.0041051875612574,-0.911984164536192,0.0018991595475654,1.4963464450887556,-0.0732572685884439,1.469616020284777,0.2909434035222818,-0.01073375710665,-0.0015072460908438,-0.9939874264290004,-1.3680740377011893,0.0014780770169823,15,1.436216020284777,0.2798434035222818,-1.3668740377011892,0.25302752230262304,-0.027620409271519614,1.4428980020529816,10.13513023000915,63.06007498512012,0.24632534280781002,-1.330668351204696,1.4046785968497004,4.113596269495962,-3.043350069007513,0.004756404907395731,0.005054328814777155,-0.024338825963782545,14.004756404907395,0.2513796716225872,-1.3550071771684784,-0.029318706641498077
