,Unnamed: 0.1,Unnamed: 0,run,hr,min,sec,AoA,rounded_AoA,AoS,dPb,pBar,temp,B1,B2,B3,B4,B5,B6,rpmWT,rho,q,V,rounded_v,Re,rpsM1,rpsM2,iM1,iM2,dPtQ,pInf,nu,rounded_J,J_M1,J_M2,FX,FY,FZ,MX,MY,MZ,CFX,CFY,CFZ,CMX,CMY,CMZ,CN,CT,CL,CD,CYaw,CMroll,CMpitch,CMpitch25c,CMyaw,delta_e,CL_strut_cor,CD_strut_cor,CMpitch25c_strut_cor,Drag coefficient,Thrust coefficient,CL_thrust_cor,V cor,q cor,CDbcor,CMbcor,CL cor,CLa,CM25ca,dAoA,dCD,dCM25c,AoA cor,CD cor,CM cor,CT cor
0,0,0.0,65.0,10.0,28.0,22.0,-4.994,-5,-0.005,417.93,100736.0,286.54,-570.8,21.2,-565.7,-607.8,-48.9,-39.1,0.0,1.2247343376561788,979.499554647908,39.99412246757025,40,453605.09454468766,123.02,123.03,13.09,12.28,0.0,100736.0,1.4546167645736304e-05,1.6,1.5999143947038514,1.5997843520805313,-5.2436403316632685,-0.1473812917766228,-73.2131096576883,-0.8557165777158547,4.52482589150298,0.2513060672653869,-0.0246507100516561,-0.0006928494825791,-0.3441798109710013,-0.0028804322074253,0.1289341825413884,0.0008459227142762,-0.3407273629651139,-0.0545184731345669,-0.3441798109710013,-0.0246507704203166,0.0006906982996769,-0.0029903991514251,0.1358820583403832,0.2210638990816617,0.0011030299345165,0,-0.3669798109710013,-0.0307507704203166,0.21976389908166172,0.03355374346814875,0.06448420897483341,-0.3613596418423045,40.233453441966496,990.9662962852982,0.03316548393928404,0.21722095099004524,-0.3571782507428108,6.940408779554848,-4.742987431698183,-0.0007271533552499076,0.00011812936780287136,0.006106561234849832,-5.00072715335525,0.033283613307086915,0.22332751222489508,0.06421304696044076
1,1,46.0,111.0,11.0,8.0,17.0,-3.994,-4,-0.005,416.8,100714.0,287.34,-672.7,21.9,-309.4,-355.9,-271.2,-40.0,0.0,1.221057755314085,976.830781050432,39.99968422333736,40,451326.4478480881,123.03,123.03,11.57,11.69,0.0,100714.0,1.4621641071803442e-05,1.6,1.6000068250164865,1.6000068250164865,-6.174082197292369,-0.1472335818916674,-47.489231484851686,-0.9124206301034244,2.616406889334628,0.2585741515708951,-0.02910407841963,-0.0006940461070079,-0.2238600447900125,-0.0030796950539901,0.0747577787515082,0.0008727658159069,-0.2212892094953076,-0.04462569657702,-0.2238600447900125,-0.0291041388757585,0.0006915062943975,-0.0032065695247456,0.0829608496439919,0.1382831520178188,0.0010939901813517,0,-0.24346004479001251,-0.035904138875758496,0.1390831520178188,0.030668981239829286,0.06679658832573848,-0.23880055033027098,40.23277657372441,988.2330281106875,0.030315122087953512,0.13747840858573768,-0.23604526610525745,6.940408779554848,-4.742987431698183,-0.0003493347260671773,2.726398748442469e-05,0.002933678131012077,-4.000349334726067,0.030342386075437936,0.14041208671674976,0.06646919564924189
2,2,33.0,98.0,10.0,59.0,43.0,-2.994,-3,-0.005,417.63,100719.0,286.79999999999995,-745.0,18.6,-59.3,-103.4,-462.3,-36.1,0.0,1.2234175522320183,978.7910191616756,40.00116429069415,40,452877.49037520576,123.02,123.02,11.21,11.14,0.0,100719.0,1.4572103157859285e-05,1.6,1.6001960939507849,1.6001960939507849,-6.8327446716174665,-0.1516217355047416,-21.347060653944325,-0.8664867976683797,0.8090508762398496,0.2345274335908957,-0.0321444498623476,-0.0007133000732808,-0.1004266299821752,-0.0029187972583023,0.0230704623313995,0.0007900155339975,-0.0986105996586996,-0.0373459944502941,-0.1004266299821752,-0.0321445119871247,0.0007104949381366,-0.003074320845065,0.0321304709397764,0.0567831208544512,0.0009495131900317,0,-0.11912662998217521,-0.039244511987124704,0.059183120854451196,0.02831734852234611,0.06752768187686839,-0.11559250417828,40.23256287051833,990.2056281085214,0.027990919899221076,0.05850088661781298,-0.11426001000239645,6.9777811816137865,-4.669607815845648,4.170857241920287e-05,3.886480611789359e-07,-0.0003464400594860778,-2.9999582914275806,0.027991308547282254,0.058154446558326904,0.06720119446214959
3,3,39.0,104.0,11.0,3.0,28.0,-1.994,-2,-0.005,417.25,100717.0,287.11,-790.5,14.9,182.0,139.0,-625.0,-32.6,0.0,1.2220723296049087,977.8935528363936,40.00482121523746,40,452040.86894458113,123.03,123.03,11.18,11.17,0.0,100717.0,1.4600407350574258e-05,1.6,1.600212307191154,1.600212307191154,-7.245303617840329,-0.1672031143415962,4.328116861311564,-0.8557102814880087,-0.906128571582962,0.2129563960048022,-0.0341166034644294,-0.0007873241275857,0.0203801875661205,-0.0028851415339616,-0.0258623915677363,0.0007180109393658,0.021554928655231,-0.0333868196725485,0.0203801875661205,-0.0341166720415144,0.0007843468892913,-0.0030801867067796,-0.0162465256126505,-0.0216352577764583,0.0008247507719802,0,0.0027801875661204976,-0.041616672041514396,-0.017135257776458298,0.02659489934052436,0.06815455315364867,0.005158747169166686,40.23237974618792,989.2886897358853,0.02628856558581987,-0.016937885047752635,0.0050993260610185534,6.83878620191732,-4.493042131809997,0.00043376915315970993,4.2036174297113704e-05,-0.0034929792046288145,-1.9995662308468403,0.026330601760116985,-0.02043086425238145,0.06789009447215796
4,4,45.0,110.0,11.0,7.0,50.0,-0.994,-1,-0.005,417.22,100710.0,287.23999999999995,-804.6,-9.3,406.7,381.9,-754.9,-25.0,0.0,1.221434342561601,977.82270080094,40.01381797858296,40,451747.422818022,123.03,123.03,11.38,11.14,0.0,100710.0,1.4613177131717457e-05,1.6,1.6005721821010528,1.6005721821010528,-7.369409215064066,-0.4590077347457456,29.817922187255828,-0.8613506652384888,-2.515950383339401,0.1641052729235398,-0.0347035048908046,-0.0021615270237816,0.1404164673531525,-0.0029043692736992,-0.071814542457192,0.000553342943317,0.140997363181834,-0.032262379506401,0.1404164673531525,-0.0347036933874804,0.0021584985634433,-0.0035034741162744,-0.0620332565929772,-0.0972825973884358,0.0006140369015807,0,0.1235164673531525,-0.042503693387480404,-0.0913825973884358,0.025597147257892357,0.06834911435938633,0.12470932387658087,40.23232293152241,989.2142182115236,0.025302377587904455,-0.09033026066499403,0.12327320578603154,6.770864556929854,-4.334273291159121,0.0008235917129411377,0.00015154087518116932,-0.0064415631571957885,-0.9991764082870589,0.025453918463085624,-0.09677182382218982,0.06820586374681745
5,5,38.0,103.0,11.0,3.0,0.0,0.006,0,-0.005,417.4,100718.0,287.02,-801.8,-30.3,628.5,615.4,-860.0,-13.6,0.0,1.2224676686868654,978.247814263068,40.00559647049257,40,452306.1443035533,123.03,123.03,11.33,11.28,0.0,100718.0,1.4592127058522603e-05,1.6,1.600243317778447,1.600243317778447,-7.338638875602282,-0.6529184764642326,55.15787167377585,-0.8711753751844534,-3.983510305563861,0.0906562413884785,-0.0345435853649469,-0.0030733417341294,0.2596327031496686,-0.0029362204590686,-0.1136547261723606,0.0003055489380089,0.2596290843302792,-0.0345707738485857,0.2596327031496686,-0.0345438534330758,0.0030703272259305,-0.003802482925623,-0.1039185141011995,-0.1688257851837694,0.0003051507412534,0,0.24343270314966858,-0.0425438534330758,-0.1623257851837694,0.025419065376681593,0.06804514626535901,0.24343270314966858,40.232411699019444,989.6486512475805,0.025126235572596186,-0.16045577827482227,0.24062833761871985,6.723953758214418,-4.099122713584476,0.0012117866211159628,0.0003280636870621215,-0.009054114795389968,0.0012117866211159628,0.02545429925965831,-0.16950989307021225,0.06808038014833573
6,6,47.0,112.0,11.0,8.0,47.0,1.001,1,-0.005,416.97,100715.0,287.42999999999995,-776.0,-23.9,840.8,823.5,-929.6,-14.8,0.0,1.220687538272233,977.2322704113608,40.01397000986698,40,451240.85909787146,123.04,123.03,11.95,12.08,0.0,100715.0,1.4629637492713454e-05,1.6,1.600448177416656,1.6005782634263626,-7.096822431530347,-0.5649439948650223,79.22383408204504,-0.8441757544388908,-5.228934139246942,0.0995214731569662,-0.0334400501544331,-0.0026620020023043,0.3733007286979273,-0.0028481773622955,-0.1493433238477798,0.0003357770054606,0.3726595665272684,-0.0399564572559047,0.3733007286979272,-0.0334402823306007,0.0026590837972857,-0.0036037873434429,-0.139918146451336,-0.2330830380831531,0.0002727681128701,0,0.35890072869792716,-0.0416402823306007,-0.2259830380831531,0.026155086337826726,0.06759769128935308,0.35772098631532334,40.23254241384754,988.6276959558438,0.025853609512737317,-0.2233782426729832,0.3535977123245881,6.505194356661514,-3.700170245466792,0.0015914363583561214,0.0005658279634118901,-0.010969849410168285,1.001591436358356,0.026419437476149207,-0.2343480920831515,0.06786208269576738
7,7,34.0,99.0,11.0,0.0,31.0,2.001,2,-0.005,416.98,100717.0,286.96,-732.4,-24.0,1049.4,1030.1,-976.8,-13.7,0.0,1.2227111323977744,977.2558875158858,39.98132773290784,40,452195.3133508748,123.03,123.03,10.84,11.23,0.0,100717.0,1.4586849276845415e-05,1.6,1.5992725564706003,1.5992725564706003,-6.691865964262897,-0.5522187827402179,103.51813776884391,-0.8623459362749765,-6.370689623207012,0.0932148645040993,-0.031531143364877,-0.002601978237512,0.4877630933263988,-0.0029094117012239,-0.1819485473449197,0.0003144914425963,0.4863646930319422,-0.0485431105840804,0.4877630933263988,-0.0315313703102516,0.0025992266162647,-0.0036515467627463,-0.1730614009933384,-0.2946525742513239,0.0001867988344223,0,0.47476309332639877,-0.0398313703102516,-0.28735257425132393,0.0278991023209656,0.06737277447804856,0.4724118174056638,40.2326081389523,988.6548186427303,0.027577432978075966,-0.2840394743288362,0.46696503287726043,6.495469002374841,-3.5276745690142626,0.0019651858585223443,0.0008628059185212418,-0.013109459463162946,2.001965185858522,0.02844023889659721,-0.29714893379199914,0.06791424090039472
8,8,42.0,107.0,11.0,5.0,38.0,3.005,3,-0.005,417.58,100713.0,287.12,-648.9,-8.5,1256.0,1224.2,-990.2,-20.0,0.0,1.2219812332763669,978.6729307237704,40.0222516015584,40,452191.86648658046,123.02,123.03,11.59,11.58,0.0,100713.0,1.4601891307299103e-05,1.6,1.6010396652086534,1.6009095311222346,-5.92050363197935,-0.3817469577787513,127.75005124079962,-0.8863350581131015,-7.474513772244697,0.1351805272763362,-0.0278561990259386,-0.0017961342302016,0.6010689417899816,-0.0029860172139954,-0.2131649572019999,0.0004554162421414,0.5987821418350567,-0.0593277947350399,0.6010689417899817,-0.0278563556621504,0.0017937033114151,-0.0035113353226981,-0.2053136048207203,-0.3550091402794845,0.0002707149353375,0,0.5902689417899817,-0.0360563556621504,-0.3484091402794845,0.030744465044439215,0.067429719244568,0.586739942954124,40.23259149729274,990.087571486903,0.0303900145553679,-0.34439235904779036,0.5799754648785694,6.449223899029067,-3.444398903701478,0.0023279487103439966,0.0012107449610798187,-0.01531346928522953,3.002327948710344,0.03160075951644772,-0.3597058283330199,0.0682871888488682
9,9,35.0,100.0,11.0,1.0,5.0,4.001,4,-0.005,417.24,100717.0,286.96,-563.8,24.6,1453.8,1405.3,-1004.8,-39.8,0.0,1.2227111323977744,977.8699354819876,39.99388667371316,40,452337.35701212473,123.02,123.03,11.84,11.4,0.0,100717.0,1.4586849276845415e-05,1.6,1.5999049620681824,1.5997749202115563,-5.134960288267611,-0.0968459060996593,150.61101382064115,-0.8590775971377544,-8.622555091760747,0.2650717363865581,-0.0241800267177907,-0.0004560379176346,0.709212561292326,-0.0028965648442062,-0.2461077698552825,0.0008937463569858,0.7057969571862789,-0.0736056112907457,0.709212561292326,-0.0241800664225358,0.0004539278105036,-0.0030800879638476,-0.2392925575510715,-0.4157417968476412,0.0006766584456532,0,0.700512561292326,-0.032380066422535804,-0.40984179684764116,0.034783985765291764,0.06750544504455308,0.6958036194874901,40.232569368370264,989.2741223496934,0.03438300178652477,-0.405117209059632,0.6877825115654369,6.201695559163984,-3.493699698767926,0.002679114544468602,0.0016035718327982978,-0.01789444264223866,4.002679114544469,0.03598657361932307,-0.42301165170187066,0.06871096949555759
10,10,36.0,101.0,11.0,1.0,37.0,5.001,5,-0.005,417.44,100717.0,286.95,-443.5,38.1,1643.3,1586.7,-1000.6,-46.5,0.0,1.2227537429965687,978.3422843285324,40.00284777237295,40,452466.740320811,123.04,123.03,11.63,11.75,0.0,100717.0,1.458594557278281e-05,1.6,1.6000033186655316,1.600133368516679,-4.026240354904419,0.0369493589853355,173.44134729337392,-0.8530941270929537,-9.88018390518365,0.3094501315172736,-0.0189500191966382,0.000173906920689,0.8163240569323285,-0.0028750015518435,-0.2818672674435947,0.0010428739104816,0.8115645230821401,-0.0900394026438797,0.8163240569323283,-0.0189500039482401,-0.0001755606211662,-0.002906137925894,-0.2765261482835012,-0.4794172790540363,0.0007855667357853,0,0.8103240569323283,-0.0269500039482401,-0.4746172790540363,0.040109935279270606,0.06724093026558164,0.8044636237119881,40.23264667272102,989.7557833537558,0.039647402283847735,-0.469144167461314,0.7951868456021878,6.15381504171912,-3.6483363888868117,0.0030176660786420343,0.0020344556035644845,-0.020918605777944608,5.003017666078642,0.04168185788741222,-0.4900627732392586,0.06881885736271709
11,11,41.0,106.0,11.0,4.0,59.0,6.005,6,-0.005,417.39,100714.0,287.11,-286.7,29.3,1819.4,1763.1,-977.4,-38.7,0.0,1.2220359284314344,978.2241967698388,40.012179743833045,40,452110.5506531386,123.03,123.04,11.32,11.38,0.0,100714.0,1.4600842257558903e-05,1.6,1.600506651914209,1.6003765717246845,-2.582342703664867,-0.0061578127853282,195.60795932928852,-0.8987857536879691,-11.256983778489277,0.2591664334965259,-0.0121555959893204,-2.898603825514414e-05,0.9207652115762096,-0.0030293519631759,-0.3211841315337896,0.0008735189013404,0.9144411001272746,-0.1084149794117832,0.9207652115762096,-0.0121555984725444,2.792526228334057e-05,-0.0031122375821545,-0.3177580407226292,-0.5463683157544479,0.0005431381853112,0,0.9161652115762096,-0.0195555984725444,-0.5424683157544479,0.04681404392082626,0.06646838369268121,0.9092173735729289,40.23427100882977,989.716230108178,0.046270465330241956,-0.5361694759658334,0.898660048098176,5.904957963867195,-3.82072892127397,0.0033403480096510867,0.002492810619202343,-0.02396611588175972,6.003340348009651,0.048763275949444296,-0.5601355918475931,0.06842835263624703
12,12,1.0,66.0,10.0,29.0,19.0,7.001,7,-0.005,418.23,100737.0,286.75,-105.5,25.4,1975.1,1921.7,-944.6,-37.0,0.0,1.2238495582411162,980.2080984635144,40.023044640108,40,453346.70378556807,123.03,123.03,13.43,11.94,0.0,100737.0,1.4564983630753098e-05,1.6,1.600941253049957,1.600941253049957,-0.914488130923415,-0.0461178209260391,215.6642000541801,-0.9006091294095788,-12.757151823310618,0.2484679094289699,-0.0042959633532161,-0.0002166462985456,1.0131192179584612,-0.003029353915143,-0.3632502140761388,0.0008357646060167,1.0050418052063297,-0.1277496570856384,1.0131192179584612,-0.0042959822428143,0.0002162714041958,-0.0031692428108943,-0.3620393840532863,-0.6132998353548686,0.0004432447237463,0,1.0070192179584612,-0.0104959822428143,-0.6110998353548687,0.054987501563112426,0.06536979083788164,0.9990526444705167,40.24348315994143,992.1776259149126,0.05432413807632088,-0.603727590644069,0.9870001775119368,5.081843952859432,-3.850294768575556,0.003635766776249538,0.0029532341950717837,-0.026157026920943384,7.00363576677625,0.057277372271392665,-0.6298846175650124,0.06767685807550439
13,13,44.0,109.0,11.0,7.0,2.0,8.005,8,-0.005,417.48,100714.0,287.17,156.5,12.4,2090.1,2038.6,-872.6,-33.1,0.0,1.2217806017757744,978.4367545420748,40.020707710626496,40,452038.9630383235,123.03,123.04,11.21,11.37,0.0,100714.0,1.4606266967652224e-05,1.6,1.6008477747340006,1.6007176668199292,1.4967957154181704,-0.2036461027020263,231.62832642162888,-1.0460020327305408,-14.642876546162835,0.2230973036701669,0.0070441817687313,-0.0009583940875499,1.090083314171662,-0.0035247776470781,-0.4176996232789817,0.0007517847618777,1.0804424243179636,-0.1448289338018702,1.0900833141716617,0.0070440981062473,0.0009590088047246,-0.0038626192012435,-0.4196850468198099,-0.6897956528993008,0.0002065528241646,0,1.0833833141716618,0.0024440981062473005,-0.6895956528993008,0.06472095761798602,0.06439122914363375,1.0744217871371122,40.25555712318849,990.9790168774937,0.0639018209710749,-0.6808678297701288,1.0608234367344729,4.212909545170863,-4.365425792528641,0.00388276290755155,0.003368120333077899,-0.03082279104078695,8.003882762907551,0.0672699413041528,-0.7116906208109158,0.0669652631518251
14,14,48.0,113.0,11.0,9.0,27.0,9.001,9,-0.005,416.89,100713.0,287.37,455.9,10.6,2176.0,2121.5,-795.2,-21.9,0.0,1.2209181602056944,977.0433339083368,40.006322728041695,40,451313.10824102734,123.02,123.03,12.08,11.74,0.0,100713.0,1.4624499985072003e-05,1.6,1.600402450726664,1.600272368433668,4.252259151538903,-0.0923961832007982,243.85578932355665,-0.9912309268871126,-16.9923710724325,0.150746847865681,0.0200404135629898,-0.0004354526986709,1.1492645893900433,-0.003344975747845,-0.4854121007369467,0.0005087054252416,1.1382474540328251,-0.1600107746041875,1.1492645893900433,0.020040375486265,0.0004372015530113,-0.0035045944886055,-0.4910605507858243,-0.7756224142940307,-4.585874925796586e-05,0,1.1582645893900432,0.012440375486265,-0.7746224142940307,0.07610452103600704,0.06392152349479276,1.1482650600575788,40.272130277627355,990.3827093655242,0.07507947610086364,-0.7641890948064147,1.132799181447591,4.140468272462575,-4.937260238146964,0.003975945962029573,0.0035317243631809965,-0.03360084307871438,9.00397594596203,0.07861120046404464,-0.7977899378851291,0.06645944899721107
15,15,37.0,102.0,11.0,2.0,7.0,10.001,10,-0.005,417.19,100717.0,286.95,806.4,25.4,2252.2,2204.1,-698.0,-27.4,0.0,1.2227537429965687,977.75184884878,39.990774970431566,40,452330.1865091415,123.04,123.04,11.04,11.01,0.0,100717.0,1.458594557278281e-05,1.6,1.5995204399644525,1.5995204399644525,7.477556639739121,0.0779433623885193,255.96091556219875,-0.7234867237805034,-19.69288879428865,0.1869523928926502,0.0352153368206227,0.0003670720118462,1.2054405320763013,-0.0024396856729885,-0.5621487169128979,0.000630426322252,1.193239212585326,-0.1746630409346442,1.205440532076301,0.0352153687196086,-0.0003639988925788,-0.0024102089615553,-0.5720742641258074,-0.8703840672721389,0.0002022769981981,0,1.215340532076301,0.025715368719608597,-0.8667840672721389,0.08922776030643875,0.06388766089971484,1.2042465561856628,40.28880615290477,991.9218571581389,0.08795310535671307,-0.8544017033318431,1.1870434029488175,3.107964954993069,-5.429442775328911,0.004038610548883791,0.003643928154333784,-0.03599812191800626,10.004038610548884,0.09159703351104685,-0.8903998252498493,0.0662934839625017
16,16,40.0,105.0,11.0,4.0,22.0,11.001,11,-0.005,417.05,100719.0,287.17,1171.5,27.7,2337.1,2295.4,-555.1,-21.4,0.0,1.2218412577224045,977.4212075066956,39.99894013733059,40,451815.5250487242,123.03,123.03,11.57,11.07,0.0,100719.0,1.4605541867771978e-05,1.6,1.599977061214288,1.599977061214288,10.836388449634637,0.190277998596908,270.2621603444673,-0.5163420926192887,-21.997913042671385,0.1481913359470972,0.0510509217554805,0.0008964118685213,1.2732223900369422,-0.0017417576562355,-0.6281598355550426,0.0004998883446907,1.2595673180294336,-0.1928512962248547,1.2732223900369417,0.0510509997877856,-0.0008919568317596,-0.0015571291230051,-0.6425486893867581,-0.9574405188941164,0.0001935614017132,0,1.2680223900369416,0.042450999787785604,-0.9563405188941164,0.10417970345724753,0.0635518668218161,1.255896122174367,40.30850406737039,992.5562695519637,0.10259111213597684,-0.9417576951954661,1.2367455044062674,2.8477206464428977,-4.987967257324141,0.004196085841822634,0.003933639745534091,-0.03562878872724649,11.004196085841823,0.10652475188151093,-0.9773864839227127,0.06594080680209166
17,17,2.0,67.0,10.0,30.0,3.0,12.001,12,-0.005,417.88,100735.0,286.75,1599.2,42.8,2427.5,2377.1,-321.5,-20.5,0.0,1.2238252603255888,979.381464821774,40.00656201139907,40,453151.0058192181,123.04,123.04,13.48,12.95,0.0,100735.0,1.4565272804995035e-05,1.6,1.6001518779581585,1.6001518779581585,14.77015766357139,0.44352930118806,286.5454743664416,-0.4047065925344235,-23.731278949387715,0.1426258857211672,0.0694438886014693,0.0020853128371917,1.347232199845513,-0.0013624493120924,-0.6763004942828421,0.0004801516542403,1.3322264367820886,-0.2122022033428802,1.347232199845513,0.069444070314921,-0.0020792527067517,-0.0008576032237166,-0.6958734604161169,-1.028930069611639,0.000291337068985,0,1.330332199845513,0.060344070314921006,-1.027230069611639,0.12104883805510297,0.06188443125579648,1.317465703107825,40.339354319747514,996.0698231701049,0.11902076096640711,-1.0100196460960456,1.2953926121922454,3.360231756785371,-4.096049535400492,0.00438082429917208,0.004287632218626055,-0.02977557630845715,12.004380824299172,0.12330839318503317,-1.0397952224045026,0.06419446619145966
18,18,43.0,108.0,11.0,6.0,24.0,13.001,13,-0.005,417.49,100714.0,287.17,2180.3,-12.5,2438.6,2393.4,-28.3,19.6,0.0,1.2217806017757744,978.4603721185974,40.02119071906764,40,452044.4186798492,123.03,123.03,11.21,11.52,0.0,100714.0,1.4606266967652224e-05,1.6,1.6008670953065844,1.6008670953065844,20.113964035657368,0.056979962713117,295.4227272017431,-0.7385307883154762,-26.20971010158324,-0.1192820577290447,0.0946575389968496,0.0002681511726377,1.3902773352423738,-0.0024886127361234,-0.7476346433096047,-0.0004019424142527,1.375934081523127,-0.2205368946019812,1.3902773352423738,0.0946575620370247,-0.0002598907430405,-0.0022607539595254,-0.7743141516487341,-1.1182976720295157,-0.0009002365111092,0,1.3608773352423738,0.0825575620370247,-1.1098976720295157,0.1399231112053778,0.05889874694458175,1.3476280000176577,40.35864249106585,996.0849040780776,0.13744733897430322,-1.090259359158444,1.3237833331036617,1.6266684855579614,-5.120386443747464,0.0045745148403578415,0.004675154166845715,-0.037816330899745565,13.004574514840359,0.14212249314114894,-1.1280756900581896,0.06115598165987027
19,19,3.0,68.0,10.0,30.0,52.0,14.001,14,-0.005,417.6,100737.0,286.81,2663.2,-43.0,2491.8,2484.1,266.2,25.6,0.0,1.2235935316956874,978.720166071168,39.99683993518305,40,452881.3834010831,123.04,123.04,14.35,13.78,0.0,100737.0,1.4570402579740448e-05,1.6,1.599763021787256,1.599763021787256,24.551648228252347,-0.3544954606866998,311.49593279611923,-0.5700839515518955,-27.78941665656741,-0.1595805723764485,0.1155108812676876,-0.0016678343827928,1.46552970187865,-0.0019204908133749,-0.7924855180635458,-0.0005375927920928,1.4499375858059411,-0.2424893153254401,1.4655297018786495,0.1155107352818482,0.0016779146024294,-0.0021894899285594,-0.8250426028208837,-1.187526999272369,-0.0010513443511964,0,1.4321297018786494,0.1044107352818482,-1.1863269992723688,0.16088992955214793,0.05823476474320242,1.4180414372021732,40.41379868502372,999.0745629697146,0.15761207862443602,-1.1621576614775242,1.3891513229892727,3.7453099356993627,-3.9665482695455427,0.004732803959099987,0.005004294804390177,-0.03149334148274854,14.0047328039591,0.1626163734288262,-1.1936510029602727,0.06001406133281473
20,20,6.0,71.0,10.0,33.0,29.0,-4.994,-5,-0.005,417.19,100732.0,287.01,255.9,19.3,-703.1,-744.8,619.4,-38.0,0.0,1.2226801932247882,977.75184884878,39.99197776579732,40,452243.0317410026,109.36,109.37,8.42,7.31,0.0,100732.0,1.4589195310959976e-05,1.8,1.7996608833372207,1.7994963353914093,2.3620201004911645,-0.1610182144522527,-73.61437648900962,-0.884708840705468,5.186644846757673,0.2422986456919247,0.0111238653778728,-0.0007583106259679,-0.3466847779024042,-0.0029833463593593,0.1480567821280402,0.0008170606523229,-0.3463370482170385,-0.0190977653795709,-0.3466847779024042,0.0111237991604305,0.0007592813634612,-0.0031138154826332,0.1449214876522121,0.2315057497064717,0.0010850210051653,0,-0.3694847779024042,0.0050237991604305,0.2302057497064717,0.03355374346814875,0.028635459851697978,-0.3669890331301087,40.246701271182545,989.8496722124894,0.033143653660510024,0.22739220278572136,-0.3625037374090899,5.283624223404027,-4.280315214916281,-0.0007271533552499076,0.00011812936780287136,0.0056003085006935205,-5.00072715335525,0.0332617830283129,0.23299251128641488,0.028342384170412866
21,21,4.0,69.0,10.0,31.0,43.0,7.005,7,-0.005,417.58,100734.0,286.87,730.7,29.4,1814.8,1756.8,-236.2,-38.4,0.0,1.223301180620922,978.6729307237704,40.0006536813293,40,452742.67270186334,109.36,109.37,8.2,7.37,0.0,100734.0,1.4576256371174228e-05,1.8,1.8000513042836783,1.799886720640606,6.778721652055665,0.0037317359783313,213.13098001326765,-0.945762417069844,-11.678405066121528,0.2558654447368731,0.0318941480689493,1.7557962394138352e-05,1.0027895204344393,-0.0031862249291284,-0.3330553387099862,0.0008619975205284,0.9991938922623272,-0.0906400829646437,1.0027895204344393,0.0318941494797267,-1.4774672851206456e-05,-0.0032626553041665,-0.3420447990149206,-0.5918432720805025,0.0004576628947454,0,0.9966895204344393,0.0256941494797267,-0.5896432720805025,0.054987501563112426,0.02954890265971076,0.9930884150689577,40.26893229020726,991.8770071708516,0.054255496315461525,-0.5817938161653328,0.9798682121037906,6.4098880943275685,-3.9315296286872647,0.003635766776249538,0.0029532341950717837,-0.026558609625223245,7.00363576677625,0.05720873051053331,-0.608352425790556,0.03178681264883092
22,22,7.0,72.0,10.0,34.0,31.0,12.001,12,-0.005,417.15,100732.0,287.08,2319.8,45.1,2247.6,2197.8,355.4,-20.0,0.0,1.2223820616463927,977.6573797088016,39.99492209973242,40,452080.2919301049,109.36,109.36,8.78,7.57,0.0,100732.0,1.4595521616434375e-05,1.8,1.7997933799754595,1.7997933799754595,21.4000406625534,0.4895542403872349,281.15056309297364,-0.3697990668562262,-21.9441751885506,0.1378792231922694,0.1007926112845525,0.0023057643222331,1.3241983912605315,-0.0012471281543202,-0.6264739545320739,0.000464990522017,1.316214356885307,-0.1767492479065626,1.3241983912605313,0.1007928121166584,-0.0022969684988216,-0.0006808732097675,-0.6548826512062853,-0.983936240427612,0.0003132545520237,0,1.3072983912605314,0.0916928121166584,-0.9822362404276119,0.12104883805510297,0.030032238700658954,1.3010543377332349,40.384072361886695,996.5220735208147,0.11875731905428298,-0.9636419850477357,1.2764246859008248,3.401007673309057,-4.496651774028414,0.00438082429917208,0.004287632218626055,-0.032485769703555864,12.004380824299172,0.12304495127290904,-0.9961277547512916,0.03207294627516876
23,23,5.0,70.0,10.0,32.0,19.0,14.001,14,-0.005,417.44,100737.0,286.89,3324.9,-46.4,2316.9,2315.5,908.1,25.2,0.0,1.2232523295536273,978.3422843285324,39.99469454248978,40,452632.6004600707,109.36,109.36,8.97,8.43,0.0,100737.0,1.4577629017910122e-05,1.8,1.79978313977502,1.79978313977502,30.639669795238035,-0.4106124730843229,306.2040555226852,-0.5492470166515524,-25.88612502248359,-0.1586001549535891,0.1442095552221946,-0.001932600530877,1.4411888557957468,-0.0018510103106671,-0.7384934728758056,-0.0005344963435254,1.433263193267628,-0.2087542399845294,1.4411888557957466,0.1442093860218735,0.0019451851812596,-0.0021952308627575,-0.7791393640737663,-1.1374551623906732,-0.0010497288483649,0,1.4077888557957465,0.1331093860218735,-1.1362551623906731,0.16088992955214793,0.02865113822229658,1.4008575181259204,40.482876852682004,1002.1058015612122,0.1570746531536672,-1.109310483405554,1.3676381697091644,2.6130738284513653,-4.397993151940825,0.004732803959099987,0.005004294804390177,-0.03470996695997148,14.0047328039591,0.16207894795805738,-1.1440204503655256,0.02987655679697476
24,24,10.0,75.0,10.0,37.0,17.0,-4.994,-5,-0.005,417.16,100734.0,287.17,2032.6,27.2,-1010.1,-1060.6,2123.2,-40.3,0.0,1.2220232255622938,977.680996979914,40.00127688927166,40,451909.2127235226,56.24,56.24,-1.02,-0.88,0.0,100734.0,1.4603367000021104e-05,3.5,3.500296543468765,3.500296543468765,18.707621356229843,-0.0564652188557648,-74.84578220133517,-0.9647543193904978,7.481995081768623,0.2534734465055306,0.0881093867085744,-0.000265940586941,-0.3525095917812716,-0.0032535052605988,0.2135948049363916,0.0008548053893646,-0.358841449080036,0.0570884466954548,-0.3525095917812716,0.0881093631653845,0.0002736295804185,-0.003241413940508,0.188760912756655,0.278471275026664,0.0011337300834505,0,-0.3753095917812716,0.0820093631653845,0.277171275026664,0.03355374346814875,-0.04866754116987534,-0.3795512474796343,40.256160367185075,990.2432491402211,0.03312807978729547,0.27365507286976776,-0.37473625027289936,5.255630460464703,-4.27094545748923,-0.0007271533552499076,0.00011812936780287136,0.005590010247099397,-5.00072715335525,0.03324620915509834,0.27924508311686713,-0.048976250214040604
25,25,11.0,76.0,10.0,37.0,57.0,0.001,0,-0.005,417.45,100730.0,287.27,1852.9,-4.8,108.6,80.4,1464.7,-25.4,0.0,1.2215493258264662,978.3659018680356,40.02304689553574,40,451857.4535036776,56.24,56.24,-1.01,-0.91,0.0,100730.0,1.461298832318272e-05,3.5,3.502201519599612,3.502201519599612,17.084973847545,-0.3808544421456281,47.59922837974868,-0.9048618086683916,0.4387972440574543,0.1618451418001205,0.0804106904548857,-0.0017924972510356,0.2240264956381756,-0.0030493895367115,0.0125179445707336,0.0005454190653699,0.2240278990353566,0.0804067804426781,0.2240264956381756,0.0804105337238104,0.0017995144007126,-0.0035546197264195,-0.010146047217788,-0.0661530219766272,0.000545357025469,0,0.2078264956381756,0.0724105337238104,-0.0596530219766272,0.025419065376681593,-0.046990867801768116,0.2078264956381756,40.25605006237434,990.931523920203,0.02509673597174035,-0.0588965849168165,0.20519112767018063,6.652130366411747,-3.9530566037941077,0.0012117866211159628,0.0003280636870621215,-0.008781556890684284,0.0012117866211159628,0.025424799658802472,-0.06767814180750079,-0.04698513351964724
26,26,8.0,73.0,10.0,35.0,13.0,7.005,7,-0.005,417.88,100735.0,287.03,2558.6,27.9,1408.4,1353.4,1427.0,-39.3,0.0,1.2226314092546515,979.381464821774,40.02608965596751,40,452586.19137836935,56.24,56.24,-1.0,-1.0,0.0,100735.0,1.4590568185892574e-05,3.5,3.5024677751956874,3.5024677751956874,23.59598637204165,-0.0235126271570558,204.34329807982107,-0.9814500877835458,-7.836599193124325,0.2576144266883935,0.1109397127901503,-0.0001105477881965,0.9607475797845156,-0.0033040627991252,-0.2233295524910276,0.0008672618753963,0.9671058507870632,-0.0070572876656888,0.9607475797845156,0.1109397027206088,0.0001202291040603,-0.0034160930602565,-0.254598239844329,-0.4963747025410948,0.0004441753052232,0,0.9546475797845156,0.1047397027206088,-0.4941747025410948,0.054987501563112426,-0.050079523213910494,0.9607507383966377,40.26798349481186,992.548327225508,0.054258053084739126,-0.48761912218970455,0.9480056937174376,6.076547629261788,-3.5194012780367605,0.003635766776249538,0.0029532341950717837,-0.024256668708962578,7.00363576677625,0.05721128727981091,-0.5118757908986671,-0.04783903725462173
27,27,9.0,74.0,10.0,35.0,57.0,12.001,12,-0.005,416.97,100733.0,287.04999999999995,4146.0,62.4,1772.0,1713.8,2134.1,-28.0,0.0,1.222521950778907,977.2322704113608,39.98393795894684,40,452044.59604199615,56.24,56.23,-0.98,-0.92,0.0,100733.0,1.4592665350816326e-05,3.5,3.498779306955256,3.499401533401451,38.202071706758886,0.6752095626786927,266.00879302079744,-0.3715877042920866,-16.596104641380098,0.186191811120394,0.1800072083248945,0.0031815706055166,1.253426792900257,-0.0012537053829217,-0.474000506425621,0.0006281953712712,1.2634605377206083,-0.0845505164496168,1.253426792900257,0.1800074852838898,-0.0031658620011091,-0.0004797881980029,-0.5247360724090896,-0.8406012068392417,0.0005147037491872,0,1.236526792900257,0.1709074852838898,-0.8389012068392416,0.12104883805510297,-0.050954796790712256,1.2471208908562894,40.36481827311468,995.1391687283144,0.11887064097216823,-0.8238057115749594,1.2246797412329153,3.172989436236765,-3.9477033412381326,0.00438082429917208,0.004287632218626055,-0.028780539768290498,12.004380824299172,0.1231582731907943,-0.85258625134325,-0.04879823561926039
28,28,12.0,77.0,10.0,39.0,12.0,14.001,14,-0.005,416.68,100733.0,287.23,5046.7,61.5,1845.7,1776.9,2647.4,-24.4,0.0,1.221755826240592,976.5473784060044,39.982454132172194,40,451524.3633567171,56.24,56.22,-0.6,-0.75,0.0,100733.0,1.4608936411420156e-05,3.5,3.4986494652568325,3.4998940933127765,46.48132868432876,0.7071790559480626,287.0081506668046,-0.524714152301592,-20.03898346497924,0.1622400224395292,0.2191724672931925,0.0033345470729296,1.3533237171877182,-0.0017715826363019,-0.572733794371462,0.0005477679712017,1.3661448350677048,-0.1147603744329999,1.3533237171877182,0.2191727574527726,-0.0033154206543369,-0.0009395475213866,-0.6345082048497536,-0.9760444136166796,0.0003041815800615,0,1.319923717187718,0.2080727574527726,-0.9748444136166796,0.16088992955214793,-0.04860716988923677,1.3316828558670573,40.43559857476338,997.9323207636477,0.1574421788401907,-0.9539542278204017,1.3031458894627757,2.2478895641094554,-3.8801620560324506,0.004732803959099987,0.005004294804390177,-0.030942017974233817,14.0047328039591,0.1624464736445809,-0.9848962457946355,-0.04700297433289129
29,29,14.0,79.0,10.0,41.0,10.0,-4.994,-5,-0.005,105.07,100732.0,286.76,-21.1,-15.4,-166.3,-159.8,95.1,-11.4,0.0,1.223746137039498,245.11656301645405,20.01500302515628,20,226687.46980806312,61.52,61.53,1.57,1.27,0.0,100732.0,1.456660973851601e-05,1.6,1.601089574701099,1.6008293618659453,-0.1914085639809964,-0.3902568766783035,-17.648450937205453,-0.3139032220709487,1.082760941683989,0.0700158391932297,-0.0035957499885847,-0.0073312611028233,-0.3315390698103571,-0.0042223581729366,0.123290712918881,0.0009417932982724,-0.3299674725315388,-0.0324430470185121,-0.3315390698103571,-0.0035963897481152,0.0073309472865264,-0.0061828384070172,0.1243041857264623,0.206796053859347,0.0014764429501486,0,-0.35433906981035707,-0.009696389748115201,0.205496053859347,0.05913668672887688,0.06899476740140319,-0.34832577961178585,20.123543630260777,248.15417507242947,0.05841280484171682,0.20298061243880133,-0.34406198438348884,4.96857379058219,-3.567873999666104,-0.0006099624395744889,8.312124517474172e-05,0.0042740778290111265,-5.000609962439574,0.05849592608689156,0.20725469026781246,0.06835155915786131
30,30,51.0,116.0,11.0,16.0,57.0,-3.994,-4,-0.005,105.11,100700.0,286.59,-44.9,-33.8,-107.0,-90.0,31.2,-8.2,0.0,1.224083057402585,245.20987685374905,20.01605722607741,20,226866.471309216,61.5,61.51,2.31,2.04,0.0,100700.0,1.4555883061664828e-05,1.6,1.601694611906841,1.601434216099345,-0.4015023196630121,-0.6429661130151209,-11.298170850349337,-0.4065957958214143,0.4676187736322533,0.0498477976800983,-0.0075396447010969,-0.0120739926261151,-0.212163640935925,-0.0054670982671326,0.0532260724149495,0.0006702548602763,-0.2111232182412369,-0.0222989573045449,-0.212163640935925,-0.0075406983270127,0.0120733346220193,-0.0088019617435317,0.0553511436539523,0.1081319482142616,0.0012817013615161,0,-0.231763640935925,-0.0143406983270127,0.1089319482142616,0.05702514126697681,0.07181620001462101,-0.22675399606520225,20.123132491604082,248.23850160564427,0.05632940811839434,0.10760292796760385,-0.22398749223669778,6.879761627187879,-5.653036842896276,-0.0002514721732201695,1.4128163913642253e-05,0.0025670085244296277,-4.00025147217322,0.05634353628230798,0.11016993649203348,0.071132930620048
31,31,65.0,130.0,11.0,25.0,6.0,-2.994,-3,-0.005,104.9,100696.0,286.35,-68.0,-37.3,-44.1,-24.5,-26.9,-5.8,0.0,1.2250603407244698,244.719980859943,19.988075102140613,20,226878.0516845381,61.5,61.5,1.99,1.95,0.0,100696.0,1.4534792245856803e-05,1.6,1.5994554687712543,1.5994554687712543,-0.6057338466873802,-0.6679407991071885,-4.854610300069426,-0.3892562029184921,-0.0962472272029359,0.0352755583609944,-0.0113975942600735,-0.0125680911832916,-0.0913451985448013,-0.0052444272761109,-0.0109771408772092,0.0004752656452521,-0.0906252011783172,-0.016153122407014,-0.0913451985448013,-0.0113986909895324,0.0125670965077039,-0.0087499634324245,-0.0077646951034207,0.0148916051911585,0.0009316395748841,0,-0.1100451985448013,-0.0184986909895324,0.0172916051911585,0.055419921732228795,0.07336497318184657,-0.10620557251859143,20.122907254415857,247.73700892303228,0.05474499851487336,0.017081021966857957,-0.10491216385858536,6.822513760200204,-5.342278135575879,0.00011800474147872033,3.1110340935299e-06,-0.0011291783345870683,-2.999881995258521,0.05474810954896689,0.01595184363227089,0.07269223903982361
32,32,58.0,123.0,11.0,21.0,46.0,-1.994,-2,-0.005,104.99,100699.0,286.42999999999995,-76.1,-21.8,20.9,26.6,-67.0,-5.5,0.0,1.224754668531118,244.92993578609745,19.99914275198593,20,226897.70497850003,61.5,61.5,2.07,2.46,0.0,100699.0,1.4541580680731964e-05,1.6,1.6003411074823897,1.6003411074823897,-0.6725424258572998,-0.4157789690956424,1.2703111474621642,-0.3492511892722778,-0.5887061548948425,0.034810568254047,-0.0126438285596663,-0.0078166637550915,0.0238819080379511,-0.0047014084178228,-0.0670852664199899,0.0004685988298559,0.0243073869730477,-0.0118052052384487,0.0238819080379511,-0.0126445106441165,0.0078155603431371,-0.0068840726035692,-0.0635215658096521,-0.0695984125529141,0.0007078452906812,0,0.0062819080379511,-0.0201445106441165,-0.0650984125529141,0.054363024205769626,0.07496854880746405,0.008898272659848475,20.122674381856555,247.94381351210623,0.05370221518839019,-0.0643071096653259,0.008790109824932004,6.514660403106952,-4.8409214277207955,0.00048381944006275335,5.2296483112237615e-05,-0.004230744065399665,-1.9995161805599373,0.05375451167150243,-0.06853785373072557,0.07435966535785081
33,33,52.0,117.0,11.0,17.0,36.0,-0.999,-1,-0.005,105.11,100702.0,286.61,-83.0,-42.1,69.5,95.0,-102.5,-4.5,0.0,1.2240219491583837,245.20987685374905,20.01655686207169,20,226848.49078501336,61.5,61.5,2.29,2.3,0.0,100702.0,1.4557400163104433e-05,1.6,1.6017345930215483,1.6017345930215483,-0.7286452586769852,-0.7257755882612829,7.560576286176545,-0.3568711190464197,-1.048818540836352,0.0286723958550305,-0.0136829255885104,-0.0136290372439504,0.1419769105721597,-0.0047984988939367,-0.1193803473095782,0.0003855298242248,0.1421938912286773,-0.0112054846179381,0.1419769105721597,-0.0136841148942771,0.0136278431315423,-0.008631848535204,-0.1155237741172992,-0.1510722469244685,0.000535967121226,0,0.1250769105721597,-0.0214841148942771,-0.1451722469244685,0.05390728281287639,0.07562897203302878,0.12639681813051407,20.12257857334255,248.22483554775638,0.05325252064684114,-0.14340897320921894,0.12486159227417892,6.683825192129303,-4.691564673605999,0.0008569585708765002,0.00016406861366053722,-0.007119665010283783,-0.9991430414291235,0.053416589260501676,-0.15052863821950271,0.07513820373426508
34,34,59.0,124.0,11.0,22.0,8.0,0.001,0,-0.005,104.87,100699.0,286.42999999999995,-80.6,-25.9,129.8,141.7,-124.1,-5.0,0.0,1.224754668531118,244.64999605114565,19.98771059421728,20,226768.0029011247,61.5,61.49,1.98,2.42,0.0,100699.0,1.4541580680731964e-05,1.6,1.599426300670354,1.599686412282107,-0.6999377098513101,-0.4722552410870685,13.57238444946718,-0.3136061695150858,-1.434463179168045,0.0333065132282473,-0.0131739181314695,-0.008888579363098,0.2554534197394435,-0.0042264072276785,-0.1636494812508901,0.0004488651752428,0.255453189772289,-0.0131783766327227,0.2554534197394435,-0.0131746937561845,0.0088874296880204,-0.0067316875383717,-0.1599363733212698,-0.2237996707643421,0.0004487476850627,0,0.23925341973944353,-0.0211746937561845,-0.2172996707643421,0.05411636972296653,0.075247026108674,0.23925341973944353,20.122633975756937,247.65943450411484,0.053458773599865124,-0.2146591495731137,0.23634612713898218,6.387593328732306,-4.166974440883885,0.0012353875694117067,0.00034096696915763094,-0.00958350333322947,0.0012353875694117067,0.05379974056902276,-0.22424265290634315,0.07493039695473022
35,35,50.0,115.0,11.0,15.0,58.0,1.006,1,-0.005,104.82,100705.0,286.61,-73.2,-14.0,189.0,187.1,-136.0,-2.5,0.0,1.2240584138348296,244.5333548882473,19.988627706458523,20,226538.71705983143,61.49,61.5,2.37,2.06,0.0,100705.0,1.455696649843546e-05,1.6,1.5997598119835856,1.5994996884369217,-0.625824455280346,-0.2503424187309457,19.67133842918162,-0.3081256007055257,-1.7576084746783374,0.0183304345280609,-0.0117846097382251,-0.0047140818495914,0.3704218402788536,-0.0041545274484907,-0.2006108753178731,0.0002471534115153,0.3701578405291308,-0.018286330333486,0.3704218402788536,-0.0117850210745996,0.0047130534304379,-0.0054866995403475,-0.1972893480827859,-0.2898288082150686,0.0001507847276238,0,0.3560218402788536,-0.019985021074599603,-0.2827288082150686,0.05506479514959777,0.07448110269462438,0.35472196580272997,20.122745133241647,247.54409338464598,0.054395073257685785,-0.2792901379753737,0.35040768359402047,6.502732128922254,-3.764369055538143,0.0015979469647825334,0.0005704670664273644,-0.011229912523776897,1.0015979469647824,0.054965540324113146,-0.29052005049915064,0.07438183274984633
36,36,64.0,129.0,11.0,24.0,34.0,2.006,2,-0.005,105.18,100696.0,286.37,-55.9,-15.2,238.5,237.1,-133.8,-1.3,0.0,1.224974782855927,245.37317642532733,20.01543190926637,20,227160.35537851072,61.51,61.5,1.92,2.05,0.0,100696.0,1.453659753678242e-05,1.6,1.6013841860796576,1.6016445737521905,-0.4611642721304951,-0.2532440375019234,25.801229664930474,-0.3092559395449943,-2.007946289741532,0.0113085697030913,-0.0086542482682184,-0.0047523993193633,0.4841880879324634,-0.0041554964914723,-0.2283996572605174,0.0001519541444989,0.4835884268063511,-0.0255975383140881,0.4841880879324634,-0.0086546629603424,0.0047516440756356,-0.0054969258699561,-0.2259604316976331,-0.3468575383992209,-4.0554209322848326e-05,0,0.47118808793246336,-0.016954662960342398,-0.3395575383992209,0.05683790735046818,0.07390143277216918,0.46860896512312095,20.122829311488395,248.39633314430407,0.05614615035339801,-0.3354248861949935,0.4629056669964868,6.445659652694106,-3.267505550542252,0.001971493008497931,0.0008683530569247704,-0.012412324239721823,2.0019714930084977,0.057014503410322784,-0.3478372104347153,0.07407813647514525
37,37,55.0,120.0,11.0,19.0,55.0,3.006,3,-0.005,104.96,100701.0,286.47,-36.7,-15.4,285.6,283.1,-124.9,-0.8,0.0,1.2246079768724318,244.85995072741883,19.99748292810532,20,226827.0499309837,61.49,61.49,2.32,2.21,0.0,100701.0,1.4544903031109626e-05,1.6,1.600468526354816,1.600468526354816,-0.2796478247686308,-0.2488051252380468,31.699685447689927,-0.3296564389892048,-2.2034988475756387,0.0088072862544701,-0.0052588946266823,-0.004678884726845,0.5961258794210279,-0.0044389040831664,-0.2511686961274449,0.0001185922502726,0.5950298599916806,-0.0365128170163497,0.5961258794210279,-0.0052593029163764,0.0046784257838985,-0.0057559584103468,-0.2496864610668879,-0.398443926064808,-0.0001834164492291,0,0.5853258794210279,-0.013459302916376401,-0.391843926064808,0.059531892627416136,0.07355546420132392,0.5814762838651579,20.122879573363058,247.87802244478033,0.05880705417805408,-0.3870729784059064,0.5743964422989665,6.387950879473482,-2.955682293563868,0.00233527314257371,0.0012183756877482293,-0.01359946928255473,3.002335273142574,0.06002542986580231,-0.4006724476884611,0.07404967874356402
38,38,62.5,127.5,11.0,23.5,27.0,4.003,4,-0.005,105.13,100696.5,286.4,-13.4,-20.35,329.2,330.79999999999995,-111.1,2.85,0.0,1.2248525520662088,245.25653429066864,20.011670381705763,20,227076.4826101376,61.505,61.495000000000005,2.215,2.4850000000000003,0.0,100696.5,1.4539233452081304e-05,1.6,1.601213469626208,1.6014737216742598,-0.0610803810801611,-0.2812849704562075,37.60554931794839,-0.3058339072696011,-2.388152259240784,-0.0142798139909848,-0.0011470650378628,-0.0052811272659716,0.7060434553653856,-0.0041112411607955,-0.2717760652061871,-0.0001919994606079,0.7042409210374442,-0.0504322889494956,0.7060434553653856,-0.0011475258987895,0.0052810271455545,-0.0055726786531505,-0.2714527615204215,-0.4475129917797825,-0.0005805610173394,0,0.6973434553653856,-0.0093475258987895,-0.44161299177978247,0.06325377532642033,0.07311846025072227,0.6922429694126951,20.122943083378143,248.28106137746462,0.062483226192485336,-0.43623332065984816,0.6838101570184799,6.28780749676683,-2.8199101004193827,0.0026945772347313312,0.0016221354953082612,-0.015368141028356312,4.002694577234731,0.0641053616877936,-0.4516014616882045,0.07397212609919732
39,39,61.0,126.0,11.0,23.0,27.0,5.005,5,-0.005,105.22,100697.0,286.42999999999995,16.4,-19.9,374.3,374.4,-92.6,2.2,0.0,1.224730343469925,245.4664906698361,20.021235116965936,20,227143.8396352578,61.5,61.5,2.02,2.6,0.0,100697.0,1.45418694992803e-05,1.6,1.6021089492482825,1.6021089492482825,0.2165996886271376,-0.2806151136903952,43.46469088915737,-0.3384221250041495,-2.5872161359387587,-0.0094009408143519,0.0040631831176246,-0.0052640453904801,0.8153520411454106,-0.0045456761307965,-0.2941785063578445,-0.000126273163335,0.8125976589632173,-0.0670858040462622,0.8153520411454106,0.0040627237275335,0.0052643999500533,-0.0059953571134655,-0.2953237265803318,-0.4984731413211362,-0.0006488426979104,0,0.8093520411454106,-0.0039372762724665,-0.49367314132113616,0.06812141783759978,0.07233722434531586,0.8030474366292906,20.123056683835983,248.49641261871892,0.06729081196719691,-0.48765377439869323,0.793255862462904,6.258260486823832,-2.9139735449851347,0.0030494052849707933,0.0020774766550519202,-0.017458144702246645,5.003049405284971,0.06936828862224884,-0.5051119191009399,0.07358885797379983
40,40,56.0,121.0,11.0,20.0,29.0,6.001,6,-0.005,104.97,100699.0,286.47,48.1,-23.3,410.1,413.9,-69.5,3.8,0.0,1.2245836552077636,244.88327907105685,19.998634102591048,20,226835.6022293942,61.5,61.5,2.07,2.51,0.0,100699.0,1.4545191909907454e-05,1.6,1.600300405110992,1.600300405110992,0.511103244344325,-0.3135741056996807,48.61262704619668,-0.3233444334783423,-2.7568843304697843,-0.0192490028302111,0.0096105952397772,-0.0058963308116363,0.9140937516109744,-0.0043534966274981,-0.3142171275196295,-0.0002591678106301,0.91008933018556,-0.0860067518133765,0.9140937516109746,0.0096100806512512,0.0058971694718338,-0.0059553361191374,-0.3169259023151813,-0.5444482348615713,-0.000880353092899,0,0.9094937516109746,0.0022100806512512002,-0.5405482348615713,0.07426352059521384,0.07136441098951254,0.9020341393982396,20.123716000824974,247.92224731031752,0.07335321713163619,-0.5339223312351146,0.8909772329281682,5.62150812840764,-2.6447578540021155,0.003382260038521115,0.002555758676380683,-0.01822061304982129,6.003382260038521,0.07590897580801687,-0.5521429442849358,0.07301892982963694
41,41,16.0,81.0,10.0,42.0,52.0,7.006,7,-0.005,105.26,100726.0,286.65,96.0,-9.2,450.9,445.8,-36.5,-4.8,0.0,1.2241428221720356,245.55980506242267,20.02984518722937,20,226996.85536219808,61.52,61.54,1.47,1.44,0.0,100726.0,1.4557543339193271e-05,1.6,1.6022768656013993,1.6017561386382528,0.9538654254621776,-0.1930837510025382,53.84225722265766,-0.3512572447604008,-2.9662795315540302,0.037429906602765,0.0178867158771786,-0.0036206723742072,1.0096404916458903,-0.004716284184387,-0.3371516086475398,0.0005025663645859,1.0042835953071405,-0.1053960016926168,1.0096404916458903,0.0178863998458012,0.0036222332708408,-0.005755246765526,-0.3421930326108303,-0.5932639314376154,-0.0002031724417262,0,1.0035404916458903,0.0116863998458012,-0.5910639314376154,0.08181962207766214,0.07071174720119,0.9949228974434505,20.12826463821481,248.71956878075994,0.08078017562575487,-0.5835549832075683,0.9822832756827039,5.2054237750009404,-2.783018296316961,0.0036951760598905492,0.003050535799987825,-0.02084424610057127,7.003695176059891,0.0838307114257427,-0.6043992293081395,0.07273793947925679
42,42,53.0,118.0,11.0,18.0,17.0,8.001,8,-0.005,104.82,100702.0,286.6,146.9,-0.7,478.5,466.9,-3.6,-7.4,0.0,1.22406465753065,244.5333548882473,19.988576727505063,20,226545.4450518548,61.5,61.5,2.36,2.28,0.0,100702.0,1.4556497057773672e-05,1.6,1.5994956090763286,1.5994956090763286,1.4239585665793122,-0.08781167077561,57.59809546969674,-0.3584088121245217,-3.316613846105629,0.0550652022478531,0.026813902603123,-0.0016535408001729,1.08460299217829,-0.0048325074071834,-0.3785534812469509,0.0007424566270104,1.077777313130167,-0.1244134209674647,1.0846029921782898,0.026813758202367,0.0016558807483024,-0.0053503274932288,-0.3861110592876016,-0.6555553875701433,-9.484853732616753e-06,0,1.0779029921782899,0.022213758202367002,-0.6553553875701433,0.09094009880748463,0.07081136819154758,1.0680479544838473,20.134067671635357,247.82274483319398,0.08973303669213624,-0.6466567532955094,1.0538715874011375,4.122319722545913,-3.586972398108708,0.0039425791040942106,0.0034726953581426193,-0.02697744526553185,8.003942579104095,0.09320573205027886,-0.6736341985610412,0.07309926710933597
43,43,49.0,114.0,11.0,15.0,15.0,9.001,9,-0.005,105.01,100707.0,286.69,218.0,9.0,498.7,483.7,39.7,-11.4,0.0,1.22374114694087,244.97659253815743,20.009328357824764,20,226665.32330188205,61.5,61.49,2.51,2.18,0.0,100707.0,1.4563902641431796e-05,1.6,1.6011561646041197,1.601416557540305,2.0797901253457893,0.0195489136820817,60.89640578343826,-0.315424360313902,-3.898895362395488,0.0817551001201513,0.0390927033013656,0.0003674504812405,1.144637189300875,-0.0042452434145196,-0.4442090797367398,0.0011003281421988,1.136657800736165,-0.1404691375628169,1.1446371893008755,0.0390927352186153,-0.0003640389979151,-0.0042628223999547,-0.4552274742014702,-0.7393919243855115,0.0004198524465987,0,1.1536371893008754,0.0314927352186153,-0.7383919243855115,0.10178616535136166,0.07145494841070116,1.14245917267177,20.14263305435547,248.48322812684356,0.1003497424887499,-0.7279716178724018,1.1263366036609286,4.151939594032915,-4.803479728513744,0.004112261784082578,0.0037780470536307753,-0.03663309405414818,9.004112261784083,0.10412778954238067,-0.76460471192655,0.07382576124180945
44,44,60.0,125.0,11.0,22.0,53.0,10.001,10,-0.005,105.06,100699.0,286.45,286.3,-1.2,515.5,507.9,81.1,-4.2,0.0,1.2246691558993472,245.09323458026748,20.00650696039243,20,226953.07476061647,61.5,61.5,2.43,2.68,0.0,100699.0,1.4543386253385168e-05,1.6,1.6009303950125175,1.6009303950125175,2.7095386136856514,-0.0526220836455604,64.39810689697167,-0.2867858960542856,-4.591453351701347,0.0352839764415336,0.0509055111060887,-0.0009886384530246,1.2098807262966749,-0.0038579662262111,-0.5228646658465989,0.0004746551044201,1.2003367766771336,-0.1599823911606858,1.2098807262966749,0.0509054246372744,0.0009930807931355,-0.0041561910177369,-0.5372125352551596,-0.8372967294244429,-0.0002543438451237,0,1.2197807262966749,0.041405424637274396,-0.8336967294244428,0.1145298743201138,0.07156859449198964,1.2073529702849575,20.15330870930583,248.86512873465185,0.11279401616414442,-0.8210609060118412,1.1890538713551428,3.5934347414706616,-5.609532122781925,0.004233928741676155,0.0040049116870127625,-0.04099359203326598,10.004233928741677,0.11679892785115718,-0.8620544980451073,0.07387265183120441
45,45,57.0,122.0,11.0,20.0,58.0,11.001,11,-0.005,104.51,100704.0,286.47,406.7,-8.2,520.6,508.5,165.2,3.5,0.0,1.224644459369434,243.81018484248943,19.954272957935963,20,226343.67158496456,61.51,61.5,2.22,2.28,0.0,100704.0,1.4544469734427338e-05,1.6,1.596491012755109,1.596750604789703,3.8181729722873214,-0.0678250489149631,66.78613631174136,-0.3909053386698486,-5.289608433827273,-0.014484286479489,0.0721115011593342,-0.0012809702779215,1.2613489700511074,-0.0052862988759025,-0.6055390033941018,-0.0001958741919343,1.2519309945745465,-0.1699119703612122,1.2613489700511074,0.0721113890990092,0.0012872631886548,-0.0055061898114537,-0.6258638440451103,-0.9388465926887468,-0.001242999660609,0,1.2561489700511073,0.0635113890990092,-0.9377465926887468,0.12935411636870198,0.06976208508143443,1.2428377366813457,20.161107459053724,247.75396938685788,0.12729503829964892,-0.922819402912807,1.2230540606853084,1.948067351264221,-5.818378575175216,0.004288455070497357,0.004108729817088332,-0.040821375952905706,11.004288455070498,0.13140376811673724,-0.9636407788657126,0.07185009953600209
46,46,13.0,78.0,10.0,40.0,15.0,12.005,12,-0.005,105.23,100731.0,286.91,514.3,-9.5,535.7,522.5,252.9,2.4,0.0,1.2230942056526706,245.48981925410047,20.03557388326957,20,226707.31832457928,61.51,61.52,1.55,1.6,0.0,100731.0,1.4580304254882532e-05,1.6,1.6029956945792678,1.6027351296094077,4.808205919073496,-0.1011771222462258,70.70214315973217,-0.4561445900349797,-5.813093990686259,-0.0071455272927462,0.0901883317565392,-0.0018977963965971,1.3261720588740848,-0.006126338620444,-0.6609130085155206,-9.596939385739844e-05,1.315926857822327,-0.1876240117501323,1.3261720588740848,0.0901881657991495,0.001905666806041,-0.0064955918968155,-0.6863328575279783,-1.01531457198356,-0.0014449344400856,0,1.309272058874085,0.0810881657991495,-1.0136145719835599,0.14645262019622746,0.06574240486579477,1.295603444320012,20.175863293262324,249.82606527191433,0.14391063327251277,-0.9960212029867024,1.2731155775316374,2.8568860869698383,-4.36383713295473,0.004453661708567565,0.004431393400024727,-0.029536480017138635,12.004453661708567,0.14834202667253749,-1.025557683003841,0.06767402180672741
47,47,54.0,119.0,11.0,18.0,56.0,13.001,13,-0.005,104.76,100700.0,286.53,673.3,-12.4,518.2,522.3,373.2,1.0,0.0,1.224339383034959,244.39338579817968,19.98061318215453,20,226549.06952510693,61.5,61.51,2.49,2.83,0.0,100700.0,1.4550464888023498e-05,1.6,1.5988583623131147,1.5985984276094385,6.269143221140618,-0.1639041692795182,72.55801742113076,-0.2507835212869965,-6.442543873737068,0.0019258234367046,0.1181189355534481,-0.0030881709549692,1.3670888479228565,-0.003383307749938,-0.7357637344918733,2.5981186183914776e-05,1.3586180695506351,-0.1924602352223129,1.3670888479228565,0.1181186656099298,0.003098478764869,-0.0041505236217888,-0.769055907091165,-1.1087104244788235,-0.0009084200602652,0,1.3376888479228564,0.1060186656099298,-1.1003104244788235,0.16602995254593178,0.061873317053245724,1.3237703800159766,20.18581587339309,248.95569859681748,0.1629873205365948,-1.0801463536808134,1.2995112263543231,1.5184330070776662,-5.372678887555212,0.004507374211585466,0.004538925831066563,-0.0338756589835814,13.004507374211585,0.16752624636766136,-1.1140220126643947,0.06340896954895267
48,48,15.0,80.0,10.0,42.0,9.0,14.001,14,-0.005,104.59,100727.0,286.73,790.1,-12.8,524.5,530.0,487.6,3.1,0.0,1.2238134261823068,243.9968085189798,19.96868490088081,20,226193.72246942628,61.5,61.52,1.43,1.3,0.0,100727.0,1.4564623288725763e-05,1.6,1.5979038554574616,1.5973843808620594,7.339622937021956,-0.1441741706591982,76.22406692381772,-0.2099148350060854,-6.808749137442582,-0.0115881675652815,0.1385129518168245,-0.0027208468507308,1.4384963096462655,-0.0028365532552903,-0.7788496491353856,-0.0001565894779623,1.4292724090499616,-0.2136301744029956,1.4384963096462655,0.1385127138507266,0.0027329343756845,-0.0034584943949421,-0.817889935754261,-1.1752080380167516,-0.0009886815289698,0,1.4050963096462654,0.1274127138507266,-1.1740080380167515,0.18830151820519686,0.06275307216728267,1.3899149674728537,20.21438730743677,249.25582680214816,0.1843285674433455,-1.1492377856389906,1.3605893211288218,3.4995170512788207,-3.8100326034152836,0.004698623275361323,0.004932272996417927,-0.029643213381468896,14.004698623275361,0.18926084043976343,-1.1788809990204594,0.06374176273716538
49,49,19.0,84.0,10.0,45.0,47.0,-4.994,-5,-0.005,26.19,100727.0,286.45,33.8,0.6,-64.2,-66.3,77.5,-0.6,0.0,1.2250096829787145,61.38974308738623,10.011361532529197,10,113600.09327677332,30.76,30.76,0.34,0.33,0.0,100727.0,1.4539343496079829e-05,1.6,1.601707135207486,1.601707135207486,0.3124380873930271,-0.0024547618488738,-6.074943478225712,-0.0415233900683714,0.3254004567244643,0.0005383612564945,0.0234352146552925,-0.000184125665779,-0.4556666110041188,-0.0022301236473375,0.1479424421150532,2.8914117246737016e-05,-0.4559768870644364,-0.0163201756407467,-0.4556666110041189,0.0234351984980624,0.0001861707733586,-0.002270840038044,0.1413371573014899,0.255331379067599,0.0002264842062274,0,-0.4784666110041189,0.0173351984980624,0.254031379067599,0.08843255626931788,0.07135555153056128,-0.47224756491130404,10.063295496078275,62.16934140540011,0.0873236194434367,0.2508458469167526,-0.4663256201235952,5.510635202061292,-4.3150234812339185,-0.000552180807540081,6.811903234835364e-05,0.004503389095294207,-5.00055218080754,0.08739173847578505,0.2553492360120468,0.07031075798214492
50,50,18.0,83.0,10.0,45.0,0.0,7.006,7,-0.005,26.01,100727.0,286.47,48.0,-21.2,84.7,91.5,103.2,10.3,0.0,1.2249241585131174,60.97114669406343,9.97751936271449,10,113202.02743534732,30.76,30.76,0.33,0.34,0.0,100727.0,1.4541148650667354e-05,1.6,1.5962927622785898,1.5962927622785898,0.5159122972106202,-0.1968093292084648,13.050494428061278,-0.1798187506549244,-0.6975018723537434,-0.060863131029771,0.0389629918764056,-0.0148635346290644,0.9856061023023844,-0.009723946675432,-0.3192945134285855,-0.0032912576607155,0.9829994040723612,-0.0815455408041522,0.9856061023023844,0.0389616946399584,0.0148669347349373,-0.0134079474282996,-0.3302763483431674,-0.5760261993612577,-0.0049020944555707,0,0.9795061023023844,0.0327616946399584,-0.5738261993612577,0.10521978608478658,0.07305688559727976,0.9706027076234189,10.092111205936273,62.09954494517165,0.10330785866720434,-0.5633993197380494,0.9529660824473382,6.776618704604284,-3.969440042515818,0.0037529576919249573,0.00314668443569308,-0.027984457774463047,7.003752957691925,0.10645454310289741,-0.5913837775125124,0.0743009154250807
51,51,17.0,82.0,10.0,44.0,29.0,12.001,12,-0.005,26.13,100726.0,286.51,172.3,-5.1,74.6,78.6,332.2,4.3,0.0,1.2247409862678929,61.25021062310366,10.001074562112509,10,113439.98426379448,30.76,30.77,0.33,0.31,0.0,100726.0,1.4544903610619696e-05,1.6,1.6000613336986158,1.5995413267653371,1.666465921656922,-0.006025351921284,17.099254090031117,-0.0970815062576111,-1.484363286128731,-0.0190768027964179,0.1252822751450945,-0.0004529764380046,1.285494907422527,-0.0052258973530378,-0.6763991586867327,-0.0010269042692197,1.283448882984935,-0.1447472633230241,1.285494907422527,0.1252822351384036,0.0004639093772443,-0.0050230393935706,-0.7117103398129385,-1.0325725605591722,-0.0020488945866049,0,1.2685949074225271,0.11618223513840362,-1.0308725605591722,0.18387653286392966,0.06923007409306033,1.2542011656624001,10.13368123767155,62.8987572408909,0.17905721608184527,-1.0038538793065213,1.2213291475117234,3.078292493570367,-5.236872802541694,0.004511443340601974,0.004547124756114007,-0.03599534046419795,12.004511443340602,0.1836043408379593,-1.0398492197707192,0.06895180113531225
52,52,20.0,85.0,10.0,46.0,56.0,14.001,14,-0.005,26.01,100720.0,286.41,230.8,1.7,66.9,67.2,469.1,0.5,0.0,1.225095624083592,60.97114669406343,9.976821106643149,10,113228.40577393305,30.76,30.76,0.37,0.33,0.0,100720.0,1.4536743666146753e-05,1.6,1.5961810490287949,1.5961810490287949,2.198943992935657,0.056062664804954,19.26872976414055,-0.0999732304544093,-1.6452334087325873,0.0062867935473683,0.1660697707665715,0.0042339931906552,1.455222845681394,-0.0054061901685375,-0.753136330580784,0.0003399670223011,1.452169089399502,-0.1909388256697328,1.4552228456813938,0.1660701396198326,-0.0042195008531122,-0.0041699211000528,-0.7999435884178117,-1.1629858607676873,-0.0006789987205728,0,1.4218228456813937,0.1549701396198326,-1.1617858607676872,0.21806374901638823,0.06503655351392594,1.4060890793720355,10.170273579995612,63.0651791995522,0.21082310394878007,-1.1232096228541022,1.3594009342626543,3.955465325329329,-3.7360658471602455,0.004756404907395731,0.005054328814777155,-0.029439393345843414,14.004756404907395,0.21587743276355723,-1.1526490161999456,0.06278330618568911
53,53,24.0,89.0,10.0,50.0,10.0,-4.994,-5,-0.005,417.8,100726.0,287.02,2221.6,23.6,-1042.1,-1089.9,2272.3,-38.6,0.0,1.2225647689206816,979.192521581212,40.02331929695356,40,452542.4623059884,11.11,11.11,0.04,0.04,0.0,100726.0,1.4590968102379524e-05,17.0,17.728636725512217,17.728636725512217,20.44643831398157,-0.0922278696877423,-74.94012665273925,-0.9634751975297328,7.585450566008063,0.2419478440450511,0.0961502371515444,-0.0004337054408343,-0.3524091012418736,-0.0032441759978265,0.2162139622654271,0.0008146773164366,-0.3594413074780085,0.0651075204634845,-0.3524091012418736,0.0961501989374918,0.0004420961302466,-0.0032827188186431,0.189113732520607,0.2789740593901092,0.0010973499922642,0,-0.37520910124187357,0.0900501989374918,0.2776740593901092,0.03355374346814875,-0.056723244298393906,-0.38015285772975693,40.254315445963506,991.6832923432027,0.03313111648521654,0.2741766090960763,-0.375364633266281,5.232679413741775,-4.349471842698757,-0.0007271533552499076,0.00011812936780287136,0.005678446468235916,-5.00072715335525,0.033249245853019416,0.27985505556431217,-0.05702890504494537
