,Unnamed: 0,run,hr,min,sec,AoA,rounded_AoA,AoS,dPb,pBar,temp,B1,B2,B3,B4,B5,B6,rpmWT,rho,q,V,rounded_v,Re,rpsM1,rpsM2,iM1,iM2,dPtQ,pInf,nu,rounded_J,J_M1,J_M2,FX,FY,FZ,MX,MY,MZ,CFX,CFY,CFZ,CMX,CMY,CMZ,CN,CT,CL,CD,CYaw,CMroll,CMpitch,CMpitch25c,CMyaw,delta_e,CL_strut_cor,CD_strut_cor,CMpitch25c_strut_cor,Drag coefficient,Thrust coefficient,CL_thrust_cor,V cor,q cor,CDbcor,CMbcor,CL cor,CLa,CM25ca,dAoA,dCD,dCM25c,AoA cor,CD cor,CM cor,CT cor
0,0,1.0,9.0,25.0,38.0,-4.994,-5,0.0,418.34,100774.0,286.36,-36.3,9.1,-1209.8,-1254.3,1758.8,-27.4,0.0,1.225966469584696,980.4678999495408,39.99377431021692,40,454279.5756552534,123.02,123.02,12.65,12.16,0.0,100774.0,1.452444411971774e-05,1.6,1.5999004671083237,1.5999004671083237,-0.3246083142276416,-0.1885840642753536,-107.95438978847412,-1.0054771668494875,22.751908689209547,0.1720628586144442,-0.0015244986380945,-0.0008856709349486,-0.5069997070175013,-0.003381199442382,0.6476716650937002,0.0005786096997356,-0.5049423348726109,-0.0456537563112372,-0.5069997070175013,-0.0015244986380945,0.0008856709349486,-0.0035666763479188,0.6481013495600308,0.7743369332781835,0.0008868974372613,-15,-0.5297997070175013,-0.0076244986380945,0.7730369332781836,0.05245865741424853,0.06029551512745618,-0.5245446066122152,40.24184107917338,992.3596111576854,0.051830031261669136,0.7637734245053409,-0.5182588479945853,6.560080550415375,-4.408673489061071,-0.0007271533552499076,0.00011812936780287136,0.0057340077832014275,-5.00072715335525,0.05194816062947201,0.7695074322885423,0.05978306832789541
1,1,2.0,9.0,26.0,27.0,7.001,7,0.0,417.67,100780.0,286.54999999999995,-173.1,-6.8,1515.9,1477.2,175.9,-17.9,0.0,1.2252265242090592,978.8854900785872,39.97355269083673,40,453541.67758026,123.04,123.02,12.93,11.3,0.0,100780.0,1.4540719148728096e-05,1.6,1.598831596393527,1.5990915267457286,-1.5351101867440975,-0.3197927790106795,187.76516795230083,-0.9940423309198216,2.3947969084879963,0.1222986194157812,-0.0072211845395476,-0.001504310694823,0.8832505572505521,-0.0033481502856829,0.0682821581160004,0.0004119282899719,0.8757848965954966,-0.1148238097468479,0.8832505572505521,-0.0072211845395476,0.001504310694823,-0.0037942282676808,0.0703174704131822,-0.1486287537356919,-5.360887308847312e-05,-15,0.8771505572505521,-0.0134211845395476,-0.1464287537356919,0.05192378425695454,0.06584127148360532,0.8691265247258851,40.32652707889931,994.9323515022113,0.05108632654507748,-0.1440670636005959,0.8551087345908929,6.560080550415375,-4.408673489061071,0.003635766776249538,0.0029532341950717837,-0.02923343384548862,7.00363576677625,0.05403956074014926,-0.17330049744608453,0.06797293707889877
2,3,4.0,9.0,27.0,37.0,12.005,12,0.0,418.79,100780.0,286.53,1362.7,44.5,1992.2,1935.0,728.7,-21.3,0.0,1.2253120459013225,981.5307358716826,40.026129687893,40,454194.58519857295,123.03,123.03,13.17,12.34,0.0,100780.0,1.453891460829496e-05,1.6,1.6010646564619424,1.6010646564619424,12.595540648775026,0.4648918322291299,258.5304771348596,-0.5329644763706944,-7.8531962878857,0.1465854554543547,0.0590899593449137,0.0021809654886766,1.212854279884025,-0.001790302074218,-0.223312477614866,0.0004924010071688,1.1986190309044815,-0.1944724820687534,1.2128542798840252,0.0590899593449137,-0.0021809654886766,-0.0012522976276722,-0.2399671580535146,-0.539621915779635,0.0002211577162817,-15,1.1959542798840253,0.049989959344913695,-0.537921915779635,0.1098185135357982,0.06126612750132949,1.1832163357253673,40.50414704149759,1006.4284454612284,0.10710174865310766,-0.5246144385304247,1.1539451273832821,3.4216754740043163,-4.476870104634818,0.00438082429917208,0.004287632218626055,-0.032350811698490675,12.004380824299172,0.11138938087173372,-0.5569652502289153,0.06287208894800385
3,2,3.0,9.0,27.0,8.0,14.001,14,0.0,417.65,100783.0,286.53,2273.4,-9.4,2083.0,2053.8,1185.7,3.9,0.0,1.225348520758811,978.8382546016217,39.9705983315717,40,453577.94741920487,123.03,123.03,13.23,11.84,0.0,100783.0,1.4538481829514562e-05,1.6,1.5988433751983104,1.5988433751983104,20.96673303443639,-0.0824400898703017,282.6153958330451,-0.6683842943258074,-12.118078176906156,-0.0189484585771465,0.0986326297780289,-0.0003878183048207,1.3294918030858187,-0.0022513719865107,-0.3455359647063526,-6.382560031751939e-05,1.313857663988279,-0.2259532892183099,1.3294918030858187,0.0986326297780289,0.0003878183048207,-0.0022751055910891,-0.3733358641814568,-0.7018002801785266,-0.0006123658234981,-15,1.2960918030858186,0.0875326297780289,-0.7006002801785266,0.14565995514576974,0.05992178976407408,1.281595410118369,40.62000511355593,1009.4176605313061,0.14124731697797935,-0.6793762208027937,1.2427706225046848,2.5497625168418145,-4.655378661518645,0.004732803959099987,0.005004294804390177,-0.03659597538742084,14.0047328039591,0.14625161178236953,-0.7159721961902146,0.06053155915764914
4,4,5.0,9.0,28.0,46.0,-4.994,-5,0.0,417.74,100780.0,286.67,739.0,0.8,-1301.7,-1340.7,2288.8,-25.6,0.0,1.2247136446510132,979.0508145394946,39.9852979195156,40,453337.3226802247,109.36,109.37,7.33,7.61,0.0,100780.0,1.4551548150687052e-05,1.8,1.7993602865992873,1.7991957661378626,6.808086074824027,-0.2962363473245357,-105.85938423916102,-1.0457711411179025,22.12142558007533,0.1585677842684547,0.032019945319777,-0.0013932655284924,-0.4978802643899918,-0.0035217893472285,0.6306353612102162,0.0005340005202795,-0.4987776028082099,-0.0114427926759729,-0.4978802643899918,0.032019945319777,0.0013932655284924,-0.0038531397751577,0.6216104445767309,0.7463048452787834,0.000867394650707,-15,-0.5206802643899918,0.025919945319776996,0.7450048452787834,0.05245865741424853,0.026622890027079127,-0.5183599266355925,40.25362053424693,991.5055439795838,0.051799701557821924,0.7356465175963577,-0.511848583680395,5.292565157515129,-4.368008001051143,-0.0007271533552499076,0.00011812936780287136,0.005698782235565908,-5.00072715335525,0.0519178309256248,0.7413452998319235,0.02607999766912971
5,5,6.0,9.0,29.0,34.0,7.001,7,0.0,418.19,100779.0,286.77,665.8,-5.0,1382.8,1343.3,816.6,-18.9,0.0,1.2242744247950177,980.1136254735142,40.0141708978296,40,453378.935911482,109.36,109.37,7.61,7.67,0.0,100779.0,1.4560719102782052e-05,1.8,1.8006595864229031,1.8004949471629208,6.182850156030476,-0.3003658119972966,187.13877939327983,-1.007109076873043,2.5722199777892536,0.1271068239290161,0.0290477886257468,-0.0014111554375595,0.8792009462164083,-0.0033879113592448,0.0732490710527347,0.0004275869044529,0.8761861836017093,-0.0783316635680966,0.8792009462164082,0.0290477886257468,0.0014111554375595,-0.0038095411389332,0.0650618656057425,-0.1539846802946847,-3.993344368671364e-05,-15,0.8731009462164082,0.0228477886257468,-0.1517846802946847,0.05192378425695454,0.029299671649027064,0.8695302144705549,40.338487353512,996.771613355648,0.05105603706456106,-0.14924806375066973,0.8549986772741484,6.528935330697124,-4.300357661958725,0.003635766776249538,0.0029532341950717837,-0.028626103494628116,7.00363576677625,0.05400927125963285,-0.17787416724529787,0.03140082029509218
6,6,7.0,9.0,30.0,1.0,12.001,12,0.0,418.28,100783.0,286.73,2068.0,35.7,1832.1,1786.7,1342.2,-18.5,0.0,1.2244938152722846,980.3261899092488,40.014924561252975,40,453517.9373438719,109.35,109.36,8.48,7.29,0.0,100783.0,1.4556530466482244e-05,1.8,1.8008581741632272,1.8006935016893646,19.08462460435236,0.361999739142368,254.6944562312824,-0.4711768845832738,-6.73778055169916,0.1266843150730767,0.0896424665222957,0.0017003504218652,1.1963263485371476,-0.0015846936828543,-0.1918300755875599,0.0004260731805436,1.1888186533242555,-0.1610674191657908,1.1963263485371476,0.0896424665222957,-0.0017003504218652,-0.0011698771043369,-0.2170960708634492,-0.5143007341945132,0.0001735098143168,-15,1.1794263485371477,0.0805424665222957,-0.5126007341945131,0.1098185135357982,0.02994870358462022,1.1731996629370693,40.51139946947756,1005.553344666783,0.10706340496706483,-0.49974069238873914,1.1437666252813614,3.3090369358933,-4.128917835853692,0.00438082429917208,0.004287632218626055,-0.030000655279137447,12.004380824299172,0.1113510371856909,-0.5297413476678766,0.03151546472449624
7,7,8.0,9.0,30.0,28.0,14.001,14,0.0,417.78,100783.0,286.71,2969.0,-26.7,1918.8,1905.6,1790.5,7.3,0.0,1.2245792321614948,979.14528586362,39.989421501483726,40,453285.1073560092,109.36,109.36,7.95,7.9,0.0,100783.0,1.455472522584694e-05,1.8,1.7995458500443045,1.7995458500443045,27.36667317463562,-0.3135074187711352,278.3200324889282,-0.6732334899858697,-11.022259574468467,-0.0430040997475808,0.1286991413652354,-0.0014743529602594,1.308874811983661,-0.0022669948318838,-0.3141911430546615,-0.0001448087080154,1.3011274293362034,-0.191791957762508,1.3088748119836608,0.1286991413652354,0.0014743529602594,-0.0025678163451338,-0.3504653780673303,-0.6757472354013812,-0.0007617611423326,-15,1.2754748119836608,0.11759914136523539,-0.6745472354013812,0.14565995514576974,0.02893695896130817,1.2684743280188513,40.628064572549896,1010.1350082915309,0.14119128359020813,-0.6538529406605633,1.2295590671779064,2.457772417396684,-4.625101568153643,0.004732803959099987,0.005004294804390177,-0.03637946603137011,14.0047328039591,0.14619557839459832,-0.6902324066919334,0.02948897958174758
8,8,9.0,9.0,31.0,22.0,-4.994,-5,0.0,417.09,100781.0,286.77,2390.3,4.8,-1503.6,-1546.6,3471.4,-25.9,0.0,1.2242987210159522,977.5156762764798,39.96070718657001,40,452782.1529720835,56.19,56.18,-0.85,-0.81,0.0,100781.0,1.4560430145159034e-05,3.5,3.4998580451317816,3.500481017371926,21.999776411375148,-0.230595006736574,-101.79649907585645,-1.0774834388411527,21.4731584042244,0.1572363500521499,0.1036323430350175,-0.0010862428959928,-0.4795234967269189,-0.0036342837180518,0.6131159836433915,0.000530348297042,-0.4867244817302228,0.0614957341657531,-0.4795234967269189,0.1036323430350175,0.0010862428959928,-0.0038793182913519,0.5839069001461089,0.7055880205786647,0.0008660351690025,-15,-0.5023234967269189,0.09753234303501751,0.7042880205786647,0.05245865741424853,-0.04526670710585967,-0.5062687502064708,40.26306916533152,990.4156687727137,0.05177539248989119,0.6951147911285386,-0.49967468744610066,5.2159934683609706,-4.166605962636476,-0.0007271533552499076,0.00011812936780287136,0.0054730828777749966,-5.00072715335525,0.05189352185769406,0.7005878740063136,-0.04583400138843015
9,10,11.0,9.0,33.0,10.0,7.006,7,0.0,417.91,100780.0,286.83,2479.3,24.2,1004.0,939.9,2426.0,-23.5,0.0,1.2240304727961018,979.4523186896898,40.00465525970596,40,453107.0501855664,56.19,56.19,-0.92,-0.87,0.0,100780.0,1.4565991510642724e-05,3.5,3.5037071265961,3.5037071265961,22.86749282108032,0.1160827788541602,178.7198160639112,-1.020667461025635,5.858593831998956,0.1538472338742386,0.1075068244559898,0.0005457393613843,0.8402145369726625,-0.0034358399611785,0.166947735446551,0.0005178909823682,0.847053937935793,0.0042203876910026,0.8402145369726625,0.1075068244559898,-0.0005457393613843,-0.0033206849695284,0.1366466178601076,-0.0751168666238406,0.000108989245332,-15,0.8341145369726625,0.1013068244559898,-0.0729168666238406,0.05192378425695454,-0.04971552566858335,0.8401733354429345,40.34889031356955,996.6129045791918,0.051029713394179915,-0.07166131780770307,0.8257064680978586,6.328228871570079,-3.7275912568283793,0.003635766776249538,0.0029532341950717837,-0.02541607159526108,7.00363576677625,0.0539829475892517,-0.09707738940296415,-0.04764089837906938
10,11,12.0,9.0,33.0,54.0,12.001,12,0.0,418.47,100780.0,286.85,3897.8,61.9,1402.3,1340.3,2996.8,-28.0,0.0,1.2239451299010142,980.7749395131488,40.03305227909012,40,453372.4788255472,56.19,56.2,-0.93,-0.78,0.0,100780.0,1.4567797307490283e-05,3.5,3.506194208125599,3.505570330152622,35.91969011205161,0.6706010200403363,241.6177713035488,-0.4717894198199137,-3.0289662038144485,0.1851409186181257,0.1686413235428577,0.0031484415159486,1.1343845288474474,-0.0015860277896426,-0.0861976663909932,0.0006223934441777,1.144656770383498,-0.0709156774624087,1.1343845288474474,0.1686413235428578,-0.0031484415159486,-0.0008127744201878,-0.1337297240111816,-0.4198939166070561,0.0004397912160064,-15,1.1174845288474475,0.1595413235428578,-0.4181939166070561,0.1098185135357982,-0.050816336923922185,1.128049839378465,40.521007004679106,1006.4908637437519,0.10701264149568891,-0.40750902769195496,1.0992280733368944,3.1374641813493773,-3.9548087761780346,0.00438082429917208,0.004287632218626055,-0.028830414676670142,12.004380824299172,0.11130027371431497,-0.4363394423686251,-0.04930147334157004
11,9,10.0,9.0,32.0,35.0,14.001,14,0.0,417.77,100781.0,286.85,4718.9,37.0,1480.9,1436.5,3443.2,-23.9,0.0,1.223957274623478,979.1216680187064,39.99909816750317,40,452992.4448908331,56.19,56.21,-0.64,-0.68,0.0,100781.0,1.456765275844525e-05,3.5,3.50322042265058,3.501973946784132,43.46670402583107,0.3257872265311677,263.305377847558,-0.5628728794194595,-6.566388399171878,0.1572791695716521,0.2044187975984231,0.001532139015667,1.238294228814999,-0.0018954206933224,-0.1871803896423736,0.0005296225907031,1.25096321422349,-0.1012456349071542,1.2382942288149987,0.2044187975984231,-0.001532139015667,-0.0015482381910642,-0.2447964345237374,-0.5575372380796099,0.0001393093628224,-15,1.2048942288149986,0.1933187975984231,-0.5563372380796099,0.14565995514576974,-0.04910244430027897,1.2167731852186991,40.63679316968511,1010.5447170814901,0.1411306356216944,-0.5390378429789976,1.1789374290654921,2.2835048354777903,-3.943190699269875,0.004732803959099987,0.005004294804390177,-0.03140111502842438,14.0047328039591,0.14613493042608458,-0.570438958007422,-0.0486129283027822
12,15,16.0,9.0,37.0,6.0,-4.994,-5,0.0,104.76,100777.0,286.35,112.2,-33.9,-332.3,-311.6,541.6,-6.5,0.0,1.22604578093658,244.39338579817968,19.966703934871628,20,226817.7804950563,61.5,61.5,1.39,1.42,0.0,100777.0,1.4523109836458687e-05,1.6,1.5977453375961548,1.5977453375961548,1.035428006446708,-0.6229802725673741,-26.16870609062667,-0.3457313114919746,5.572254997125372,0.0369473323128686,0.019508830736437,-0.0117377708676859,-0.4930529737799598,-0.004664243565782,0.6363733373922366,0.0004984545839062,-0.4928795271615441,-0.0234861903036101,-0.4930529737799598,0.019508830736437,0.0117377708676859,-0.0078989126353467,0.6308747155409252,0.7540945973313112,0.0011841739296656,-15,-0.5158529737799599,0.013408830736436998,0.7527945973313113,0.07770448077202942,0.06452437145229967,-0.5102293042607089,20.128418561115176,247.54192642121265,0.0767161402600221,0.7432196360115698,-0.5037395846614797,5.0755615251504285,-3.9563552747588115,-0.0006099624395744889,8.312124517474172e-05,0.00463954559759201,-5.000609962439574,0.07679926150519685,0.7478591816091619,0.06361569439492669
13,14,15.0,9.0,36.0,23.0,7.006,7,0.0,105.02,100780.0,286.42999999999995,79.8,-13.5,336.0,334.8,241.4,-3.3,0.0,1.2257398335094296,244.9999209280697,19.993960050580515,20,227021.36939479416,61.49,61.5,1.5,1.54,0.0,100780.0,1.4529893163018737e-05,1.6,1.6001865781405875,1.5999263852010526,0.8051595208066565,-0.2420360756569275,46.8142838888846,-0.3505557344377469,0.7861248571693367,0.0272116487861738,0.0151327120975212,-0.0045489895548408,0.8798592848189546,-0.0047176214251263,0.0895562759287206,0.0003662021319735,0.8751355000269007,-0.0922996026546989,0.8798592848189546,0.0151327120975212,0.0045489895548408,-0.005999636549268,0.085291076105462,-0.1334927989012631,-0.0003683275189796,-15,0.8737592848189546,0.008932712097521202,-0.13129279890126308,0.07889291829580233,0.07051702116291889,0.8651654217509428,20.158446245405564,248.89722962544664,0.07765758893075325,-0.12923697623167826,0.8516183978329434,6.4713576771913806,-4.237917646094368,0.0036951760598905492,0.003050535799987825,-0.029099621201963577,7.003695176059891,0.08070812473074107,-0.15833659743364184,0.0723458594813558
14,12,13.0,9.0,35.0,11.0,12.001,12,0.0,104.86,100781.0,286.56,442.3,-2.0,424.9,411.2,501.2,-3.4,0.0,1.2251959248525426,244.62666780005625,19.983158165813023,20,226717.96788615503,61.51,61.51,1.5,1.53,0.0,100781.0,1.4541477161049192e-05,1.6,1.5988020453281575,1.5988020453281575,4.146153038954508,-0.0520129822244991,63.17897830119461,-0.4225979633522184,-1.904239538644371,0.0303680466061392,0.0780445013016681,-0.0009790587131697,1.1892401963794816,-0.0056958108125729,-0.217264224597382,0.0004093030805068,1.1794758257497275,-0.1709384840816505,1.1892401963794816,0.0780445013016681,0.0009790587131697,-0.005926348314433,-0.2392612989494877,-0.5341302553869196,-0.0008319009313905,-15,1.1723401963794817,0.0689445013016681,-0.5324302553869196,0.1334200470819974,0.06593614501943734,1.1586313009824856,20.233767203325442,250.37865734731744,0.13035496667801477,-0.5201986486833861,1.1320138759871268,3.2163118103678454,-4.595562636933792,0.004453661708567565,0.004431393400024727,-0.03111324038030406,12.004453661708567,0.1347863600780395,-0.5513118890636901,0.06733298226058286
15,13,14.0,9.0,35.0,48.0,14.001,14,0.0,104.88,100781.0,286.47,696.9,-5.6,427.2,429.6,710.2,-2.3,0.0,1.2255808434591569,244.6733243114899,19.981925118111658,20,226830.63937104988,61.49,61.48,1.45,1.6,0.0,100781.0,1.453335728099315e-05,1.6,1.5992233803870273,1.599483501301209,6.482459154648602,-0.0950154126558087,69.56625597499507,-0.2172809736394793,-3.0274403466392683,0.023383516615989,0.1219983473225103,-0.0017881675823383,1.3092204757322794,-0.0029279727572665,-0.3453499623014519,0.0003151049006909,1.299841641661089,-0.1983773107739002,1.3092204757322792,0.1219983473225103,0.0017881675823383,-0.003406250449551,-0.3797355586231483,-0.7046959690384206,-0.0005183606419305,-15,1.275820475732279,0.1108983473225103,-0.7034959690384206,0.1734797701157328,0.06451807064590558,1.2602121417811882,20.30051846651454,252.08145147818396,0.16838157589981514,-0.6828217481890365,1.2231772399723382,2.6116380012837714,-4.886347760933967,0.004698623275361323,0.004932272996417927,-0.03750629218227405,14.004698623275361,0.17331384889623308,-0.7203280403713106,0.06434706997569081
16,19,20.0,9.0,40.0,11.0,-4.994,-5,0.0,26.21,100774.0,286.15,67.9,-2.4,-104.4,-104.6,187.7,1.3,0.0,1.2268661828770695,61.43625398285263,10.007572925262805,10,113821.98751270965,30.75,30.76,0.31,0.35,0.0,100774.0,1.4505507858112e-05,1.6,1.6016216831929462,1.601100999940933,0.6262619101969987,-0.0264193643566768,-8.181867949922621,-0.0401366715302397,1.4218206594195697,-0.0120473338695382,0.0469388075353759,-0.0019801514966077,-0.6132372394490215,-0.0021540143028952,0.6459375535918055,-0.0006465441322703,-0.6149953701302642,-0.0066225537550827,-0.6132372394490215,0.0469388075353759,0.0019801514966077,-0.0027581127461502,0.6327077113590539,0.78645655389162,-0.0004039921002354,-15,-0.6360372394490216,0.0408388075353759,0.78515655389162,0.10724070456259309,0.06662958695742334,-0.6302300883087777,10.065586083985622,62.24476934715578,0.10584772394386881,0.7749579276638614,-0.6220438468817773,5.565853147948594,-4.497854497192737,-0.000552180807540081,6.811903234835364e-05,0.004659065180781469,-5.00055218080754,0.10591584297621716,0.7796169928446429,0.06529966461502004
17,18,19.0,9.0,39.0,28.0,7.006,7,0.0,26.26,100774.0,286.23,50.1,-18.8,58.5,66.7,173.9,8.4,0.0,1.2265232792868446,61.55253138347868,10.018439023171034,10,113888.9438277247,30.77,30.76,0.29,0.3,0.0,100774.0,1.4512720582121122e-05,1.6,1.6023185456439308,1.6028394554442051,0.5352794423768782,-0.1816445343794657,11.659736923881354,-0.1439210434528778,0.1970637146487637,-0.0485873156148516,0.0400438132494449,-0.013588677682399,0.8722552949994072,-0.0077092181710119,0.0893575366360903,-0.0026026090933765,0.8706267750427691,-0.0666470195334103,0.8722552949994071,0.0400438132494448,0.013588677682399,-0.0111356195600584,0.0780710690093051,-0.1395856247513871,-0.003941424474891,-15,0.8661552949994071,0.033843813249444805,-0.1373856247513871,0.10611163814861554,0.07285343369250795,0.8572766948704907,10.100641245211172,62.79771051111681,0.10400761244534161,-0.13466148543188647,0.8402782559405497,6.982073731701245,-4.421525707278676,0.0037529576919249573,0.00314668443569308,-0.030597804077884608,7.003752957691925,0.10715429688103469,-0.1652592895097711,0.07390392261002071
18,16,17.0,9.0,38.0,32.0,12.001,12,0.0,26.11,100774.0,286.31,158.6,-1.3,48.7,51.2,394.0,2.4,0.0,1.2261805673230886,61.203699875715024,9.991406341728528,10,113525.2063617158,30.76,30.76,0.33,0.34,0.0,100774.0,1.451993464763517e-05,1.6,1.598514525352572,1.598514525352572,1.5404962758896152,0.0314164220340051,15.348184360045009,-0.0844366966236547,-0.552322174763884,-0.0067289923670206,0.1159000856822842,0.0023636318130462,1.1547291027168805,-0.0045486813380954,-0.2518751047074778,-0.0003624969145877,1.1535902723428813,-0.1267344234151449,1.15472910271688,0.1159000856822842,-0.0023636318130462,-0.0037222554658384,-0.2845418878843489,-0.5729394559700692,-0.0011285381452142,-15,1.13782910271688,0.1068000856822842,-0.5712394559700692,0.17359912725733595,0.06831256229690365,1.1236261223856374,10.145257655979833,62.99467492204072,0.16866360365368885,-0.554998787812242,1.091680781782121,2.883744482412543,-4.970839952883905,0.004511443340601974,0.004547124756114007,-0.034150471861078016,12.004511443340602,0.17321072840980287,-0.58914925967332,0.06791548638807178
19,17,18.0,9.0,38.0,55.0,14.001,14,0.0,26.36,100773.0,286.27,214.0,-0.2,43.0,45.2,527.6,1.7,0.0,1.2263397300333068,61.78508687884528,10.038097957495838,10,114082.93973716829,30.75,30.75,0.34,0.34,0.0,100773.0,1.4516471496973385e-05,1.6,1.6065069389757118,1.6065069389757118,2.044430187578953,0.0407717080253973,17.890916517633578,-0.0876216192778259,-0.72589219775267,-0.0016069391570849,0.152366469448181,0.0030386174313726,1.3333670191067362,-0.0046758392124042,-0.3279132064177416,-8.575268506304874e-05,1.3306180554924067,-0.1747533663518178,1.333367019106736,0.1523664694481809,-0.0030386174313726,-0.0036851804577803,-0.3708581481025421,-0.7035126619756438,-0.0009747933515787,-15,1.2999670191067358,0.14126646944818091,-0.7023126619756438,0.20607494095414425,0.06680179336507874,1.2838062026263988,10.192164541670476,64.18248296871893,0.19837746284465452,-0.676079310571807,1.2358524334985803,4.130213584391575,-3.740646810805838,0.004756404907395731,0.005054328814777155,-0.029463621975004878,14.004756404907395,0.20343179165943168,-0.7055429325468119,0.0640777276775414
20,22,23.0,9.0,43.0,21.0,-4.994,-5,0.0,418.1,100769.0,286.81,2574.4,-1.6,-1536.9,-1575.3,3621.0,-21.7,0.0,1.2239822170150263,979.901061787423,40.01460718924122,40,453226.4864464768,11.1,11.11,0.04,0.04,0.0,100769.0,1.4565775632141964e-05,17.0,17.74074589861372,17.724777630478155,23.693507722494232,-0.2802148822995259,-101.92140036638273,-1.0601204282375796,21.63054400122119,0.1294339903881644,0.1113391531630882,-0.0013167694739138,-0.4789431155107381,-0.0035670149590254,0.6161063072622929,0.0004355099360631,-0.4868171925189293,0.0692238108615349,-0.4789431155107381,0.1113391531630882,0.0013167694739138,-0.0038852886557164,0.5847250364542163,0.7064293345839486,0.0007720765602565,-15,-0.5017431155107381,0.10523915316308821,0.7051293345839487,0.05245865741424853,-0.053004687866051094,-0.5063627784508116,40.26024970305989,992.6934901857778,0.051782644500413456,0.6960426259337724,-0.4998374917928808,5.23546761055951,-4.252894222748803,-0.0007271533552499076,0.00011812936780287136,0.005569891193923089,-5.00072715335525,0.05190077386821633,0.7016125171276955,-0.05356470243659724
21,21,22.0,9.0,42.0,22.0,7.006,7,0.0,417.91,100773.0,286.66,2624.9,-11.9,948.6,907.9,2576.7,-12.1,0.0,1.2246712988091633,979.4523186896898,39.99418739855961,40,453434.73645789217,11.1,11.11,0.04,0.04,0.0,100773.0,1.4551656350904194e-05,17.0,17.731692646733176,17.715732527339174,24.207263071111665,-0.318418734431728,177.06401330776498,-1.1044167052373142,6.400378859109981,0.0785127977686335,0.1138054793285825,-0.0014969803315951,0.8324301201311862,-0.0037177623413549,0.1823865567693414,0.0002642950993718,0.8400959119516345,0.0114215037968345,0.8324301201311862,0.1138054793285825,0.0014969803315951,-0.0041410181515278,0.150310144610701,-0.0597138333772075,-0.0002427718650867,-15,0.8263301201311862,0.1076054793285825,-0.0575138333772075,0.05192378425695454,-0.056061027859279744,0.8331622407870143,40.34572959177424,996.4567717722379,0.05103770913731299,-0.05653236452781547,0.8189443954825805,6.2967196865984505,-3.658064168913066,0.003635766776249538,0.0029532341950717837,-0.025026706805172116,7.00363576677625,0.05399094333238477,-0.08155907133298758,-0.053978344779997356
22,20,21.0,9.0,41.0,50.0,12.001,12,0.0,417.86,100772.0,286.62,4073.0,62.0,1346.5,1280.4,3172.2,-25.0,0.0,1.2248300565312815,979.3342289561042,39.98918446065457,40,453486.023440722,11.11,11.09,0.04,0.04,0.0,100772.0,1.4548190547460216e-05,17.0,17.713516437563595,17.74546146269897,37.531729775257375,0.7099769427320509,238.8308359805272,-0.5030346838989314,-2.454076594556128,0.1653260286266064,0.1764690013460008,0.0033382133680715,1.1229495514459045,-0.0016935536222037,-0.0699403209079068,0.0005565987864991,1.1350993155303208,-0.0608814209033458,1.1229495514459045,0.1764690013460009,-0.0033382133680715,-0.0008519508335248,-0.119678632751881,-0.4034534616344613,0.0003672886650673,-15,1.1060495514459046,0.1673690013460009,-0.4017534616344613,0.1098185135357982,-0.05881813606795931,1.118278529566543,40.51857660130223,1004.8918223914753,0.10702547964092057,-0.3915355939944692,1.089837151729325,3.107309636357284,-3.942908899006306,0.00438082429917208,0.004287632218626055,-0.028751349323235663,12.004380824299172,0.11131311185954663,-0.42028694331770483,-0.057290147528574066
23,23,24.0,9.0,44.0,27.0,14.001,14,0.0,417.92,100766.0,286.87,4955.4,118.0,1437.0,1328.9,3689.8,-40.4,0.0,1.2236897846451826,979.4759366641714,40.01070612062624,40,453000.30819360144,11.1,11.1,0.04,0.04,0.0,100766.0,1.4571627426848984e-05,17.0,17.739016333540047,17.739016333540047,45.6423711612887,1.4152241583025196,260.06930724997073,-0.4562278756561143,-5.662935511079219,0.2663198891822448,0.214573066840303,0.0066532255048794,1.222632992717718,-0.001535748153919,-0.1613683231872425,0.0008964824378066,1.2382239619235065,-0.0876039725902397,1.2226329927177175,0.2145730668403029,-0.0066532255048794,0.0001125037555082,-0.2218463789954434,-0.5314023694763199,0.0008970683197301,-15,1.1892329927177174,0.2034730668403029,-0.5302023694763199,0.14565995514576974,-0.059565787893358,1.2036432610377663,40.632475430761836,1010.6955443051613,0.14116063121555353,-0.5138248262699198,1.1664636468987186,2.195187386042921,-3.6654662063234116,0.004732803959099987,0.005004294804390177,-0.029374495373055285,14.0047328039591,0.14616492601994371,-0.543199321642975,-0.059045358028009566
24,26,27.0,9.0,47.0,0.0,-4.994,-5,0.0,105.23,100769.0,286.37,697.3,-21.3,-400.5,-389.4,961.1,-7.8,0.0,1.2258628336141346,245.48981925410047,20.01293578522738,20,227296.686559125,2.36,2.64,0.04,0.04,0.0,100769.0,1.4526066801931572e-05,17.0,41.73256661473079,37.306385307107824,6.418198867133211,-0.4361168189159633,-24.81039034371714,-0.3172663405954531,5.347140231605799,0.044542054272618,0.1203872418217882,-0.008180316943784,-0.4653726884807732,-0.004261107284442,0.6079369339438058,0.0005982307217615,-0.4740859302537719,0.0794188762996318,-0.4653726884807732,0.1203872418217882,0.008180316943784,-0.0064897484796279,0.5740054324897474,0.6925269150531904,0.0011609015571129,-15,-0.48817268848077316,0.1142872418217882,0.6912269150531904,0.07770448077202942,-0.03674569812903681,-0.4913752870939906,20.13822131802567,248.89473718098725,0.07664147163581084,0.6817708255381284,-0.4846531982993253,4.980364659794852,-3.6918127099767,-0.0006099624395744889,8.312124517474172e-05,0.004390829309852974,-5.000609962439574,0.07672459288098558,0.6861616548479814,-0.03772932903263512
25,25,26.0,9.0,46.0,15.0,7.006,7,0.0,105.4,100769.0,286.42999999999995,708.5,-16.5,209.8,208.2,781.0,0.6,0.0,1.2256060456728688,245.886406602588,20.031192780900422,20,227419.3031206813,2.39,2.64,0.04,0.04,0.0,100769.0,1.453147925422529e-05,17.0,41.24631992904413,37.340418420611925,6.589348486186504,-0.2393179387332714,44.572417303869614,-0.3718822165644581,1.691864233324492,0.0004590608373657,0.1233981751563633,-0.0044816869200006,0.8347039117957717,-0.0049865806360265,0.1920443038677446,6.155561574075044e-06,0.8435227786797975,0.0206652328174014,0.8347039117957717,0.1233981751563633,0.0044816869200006,-0.0062038436733752,0.1572641619159545,-0.0536165327539948,-0.0007505935730416,-15,0.8286039117957718,0.1171981751563633,-0.0514165327539948,0.07889291829580233,-0.03855320931839642,0.8333023661015659,20.16881109279773,250.0547595789335,0.07757779223563596,-0.05055943146266414,0.8194114151603231,6.226449880299745,-3.5625725392242944,0.0036951760598905492,0.003050535799987825,-0.02525319374471771,7.003695176059891,0.08062832803562378,-0.07581262520738186,-0.03680476695432933
26,27,28.0,9.0,47.0,59.0,12.001,12,0.0,105.38,100765.0,286.37,1081.5,8.1,280.2,260.0,1074.4,-7.2,0.0,1.2258141732986163,245.8397491286489,20.02759177833296,20,227454.112739243,2.32,2.59,0.04,0.04,0.0,100765.0,1.4526643433373123e-05,17.0,42.48318239702044,38.054433652929504,10.027064599383111,0.0649392668635637,59.11781325429447,-0.4240198181517642,-0.6656774219074286,0.0538414530296698,0.1878116334718837,0.0012163429950239,1.107304432371754,-0.0056867744949546,-0.0755756975096673,0.0007220987999925,1.1221545960826969,-0.0465336234134951,1.1073044323717538,0.1878116334718837,-0.0012163429950239,-0.0053772923174377,-0.1285109638867637,-0.4090496129074379,-0.0004117771498593,-15,1.0904044323717539,0.1787116334718837,-0.40734961290743793,0.1334200470819974,-0.04628436813892751,1.10002749360995,20.2419289352351,251.8232962645803,0.13024986722796772,-0.39767062114698465,1.0738898548113531,2.9190271409566857,-4.077040118544023,0.004453661708567565,0.004431393400024727,-0.0275593308003481,12.004453661708567,0.13468126062799246,-0.42522995194733276,-0.044994978332063076
27,24,25.0,9.0,45.0,43.0,14.001,14,0.0,105.14,100769.0,286.48999999999995,1322.1,-7.7,269.6,274.0,1288.6,-1.6,0.0,1.2253493652905156,245.27986232889623,20.008566712214023,20,227077.8334250409,2.31,2.55,0.04,0.04,0.0,100769.0,1.4536892460847084e-05,17.0,42.626560981469694,38.61464935968432,12.234680274223706,-0.1171349222673873,64.5715843312166,-0.227990330439493,-1.586436589639824,0.0173440984734764,0.2296844066949608,-0.0021990002616518,1.212216887082499,-0.0030646895667078,-0.1805224692322206,0.000233142684311,1.2317733230135106,-0.0704215075034176,1.212216887082499,0.2296844066949608,0.0021990002616518,-0.0036314300977571,-0.2452597010335896,-0.5532030317869673,-0.0006523675848371,-15,1.1788168870824989,0.2185844066949608,-0.5520030317869673,0.1734797701157328,-0.046464952582527655,1.1900577764902127,20.308876404997203,252.91448062679737,0.16824301252099616,-0.5353399588125244,1.1541340252940189,2.2988261495925024,-4.129691252089256,0.004698623275361323,0.004932272996417927,-0.032028526464492404,14.004698623275361,0.1731752855174141,-0.5673684852770168,-0.04677875855948203
28,30,31.0,9.0,50.0,47.0,-4.994,-5,0.0,26.33,100764.0,286.15,201.5,-4.4,-121.0,-121.0,282.6,2.9,0.0,1.2267444385597976,61.71532013305927,10.03077391744034,10,114074.5450213573,0.58,0.59,0.04,0.04,0.0,100764.0,1.4506947410715915e-05,17.0,85.11042218843625,83.66787265981867,1.85536503171814,-0.0381609313640986,-7.872711717696775,-0.0521418437722555,1.3588643770743256,-0.0227427661584278,0.1384322131466713,-0.0028472575984567,-0.5873975675488862,-0.0027856423315364,0.6145448289293071,-0.0012150167229195,-0.5972184212582982,0.0867729065364281,-0.5873975675488862,0.1384322131466714,0.0028472575984567,-0.0036802980033434,0.5755272987442717,0.7248319040588462,-0.0008900291292853,-15,-0.6101975675488862,0.1323322131466714,0.7235319040588463,0.10724070456259309,-0.02522176509442488,-0.6123957892190978,10.07063035866093,62.59019393204848,0.10574171443789697,0.7134185130333914,-0.603835837620597,5.302671948207392,-3.855014893089658,-0.000552180807540081,6.811903234835364e-05,0.0041121363345828135,-5.00055218080754,0.10580983347024532,0.7175306493679743,-0.02665810188189089
29,31,32.0,9.0,51.0,28.0,7.001,7,0.0,26.14,100762.0,286.11,187.9,-18.0,28.0,37.5,293.9,8.3,0.0,1.2268915929768571,61.27346601068028,9.9942020745658,10,113684.63772577335,0.57,0.59,0.04,0.04,0.0,100762.0,1.4503629067221687e-05,17.0,86.28783390804843,83.36282258913153,1.803087685855692,-0.169543499461593,10.947577964730025,-0.1142171528340782,0.4181871949702629,-0.0482280788752001,0.135501836396351,-0.0127411748781408,0.8227092503319713,-0.0061459756907338,0.1904884834052068,-0.0025951321060188,0.8330910174467295,0.0342142499282204,0.8227092503319713,0.135501836396351,0.0127411748781408,-0.0093482019670198,0.1522968886055142,-0.0559758657561681,-0.0037152040408587,-15,0.8166092503319713,0.12930183639635098,-0.0537758657561681,0.10611163814861554,-0.023355650653840494,0.8194555881419548,10.105784775538035,62.57668273777617,0.10390176610483362,-0.05265593410269305,0.8023896750437185,6.717031006193061,-3.7296365003270187,0.0037529576919249573,0.00314668443569308,-0.026596132360312667,7.003752957691925,0.1070484505405267,-0.07925206646300571,-0.022411802964378405
30,29,30.0,9.0,49.0,52.0,12.005,12,0.0,26.4,100766.0,286.19,306.8,0.5,17.3,15.8,530.0,1.4,0.0,1.226597325277485,61.87810933612799,10.044596811539977,10,114205.62010101209,0.57,0.59,0.04,0.04,0.0,100766.0,1.4510265957942694e-05,17.0,86.72293144374203,83.78317105581856,2.903984683741136,0.0484196785483512,14.593647935720044,-0.1356590807526849,-0.2247485837454705,-0.0005421824639913,0.2161016421361387,0.0036031774219011,1.0859944617899708,-0.007228426842164,-0.1013748837778777,-2.8889524050442212e-05,1.1071916731461853,-0.0145082627552318,1.0859944617899708,0.2161016421361387,-0.0036031774219011,-0.0060709729969547,-0.1622837730704944,-0.4390816913570407,-0.0012910021653685,-15,1.069094461789971,0.2070016421361387,-0.43738169135704075,0.17359912725733595,-0.034045446181380404,1.0761729080701867,10.150977761884272,63.76065769990479,0.1684735723342746,-0.42446789439958943,1.044398650709735,2.7710017805649443,-4.386560134653271,0.004511443340601974,0.004547124756114007,-0.030082518135973575,12.004511443340602,0.17302069709038861,-0.454550412535563,-0.03463679882234522
31,28,29.0,9.0,49.0,16.0,14.001,14,0.0,26.31,100765.0,286.23999999999995,354.6,5.7,7.9,7.8,657.5,-0.7,0.0,1.2263708943806766,61.66880901547622,10.0285203706257,10,113986.2843535326,0.55,0.58,0.04,0.04,0.0,100765.0,1.4514918576189636e-05,17.0,89.73264469063798,85.09130099974293,3.338028128119413,0.1059154478688369,16.636423591798337,-0.0607961747186137,-0.4037989588178048,0.0137889299972781,0.2492442866620106,0.0079085074293332,1.2422104822348834,-0.0032504437051619,-0.1827553396350199,0.0007372197497295,1.265608148040468,-0.0586993374873447,1.2422104822348834,0.2492442866620106,-0.0079085074293332,-0.0011694250171146,-0.2530055816648784,-0.5694076186749955,0.0004323887386899,-15,1.2088104822348833,0.2381442866620106,-0.5682076186749955,0.20607494095414425,-0.033044735080377655,1.216804727185117,10.195555865269357,64.10433192232452,0.19824551314216138,-0.5466196443582905,1.1705745318558591,3.621916566140891,-3.7410448879997653,0.004756404907395731,0.005054328814777155,-0.029494021646043152,14.004756404907395,0.20329984195693854,-0.5761136660043337,-0.0359047899296931
